[{"city":"Gornyy","country":"Russia","latitude":55.111901,"longitude":83.8869856},
{"city":"Angren","country":"Uzbekistan","latitude":41.0084382,"longitude":70.074132},
{"city":"Nailung","country":"China","latitude":29.115188,"longitude":93.866536},
{"city":"La Ceja","country":"Colombia","latitude":6.027632,"longitude":-75.431596},
{"city":"Pucón","country":"Chile","latitude":-39.2722541,"longitude":-71.9776285},
{"city":"Zhangting","country":"China","latitude":30.029634,"longitude":121.281625},
{"city":"Gonbad-e Kāvūs","country":"Iran","latitude":37.2406676,"longitude":55.1596592},
{"city":"Lincha","country":"Peru","latitude":-12.8,"longitude":-75.666667},
{"city":"Osasco","country":"Brazil","latitude":-23.534948,"longitude":-46.7737972},
{"city":"Yangjiaqiao","country":"China","latitude":27.768996,"longitude":112.792138},
{"city":"Ksour Essaf","country":"Tunisia","latitude":35.4175712,"longitude":10.997658},
{"city":"Campos Novos","country":"Brazil","latitude":-27.4369394,"longitude":-51.2213044},
{"city":"Zoumaling","country":"China","latitude":30.203152,"longitude":115.429626},
{"city":"Kolodeznyy","country":"Russia","latitude":51.3531567,"longitude":39.3015305},
{"city":"Novikovo","country":"Russia","latitude":52.5277159,"longitude":85.9779314},
{"city":"Litibakul","country":"Indonesia","latitude":-9.6996,"longitude":119.436},
{"city":"Kolomanu","country":"Indonesia","latitude":-10.2413,"longitude":123.699},
{"city":"Dalam","country":"Indonesia","latitude":-0.789275,"longitude":113.921327},
{"city":"Taibai","country":"China","latitude":34.058401,"longitude":107.319116},
{"city":"Mełgiew","country":"Poland","latitude":51.2250373,"longitude":22.7850797},
{"city":"Töreboda","country":"Sweden","latitude":58.7075528,"longitude":14.1266322},
{"city":"Yūki","country":"Japan","latitude":36.3034445,"longitude":139.8755526},
{"city":"Chisht-e Sharīf","country":"Afghanistan","latitude":34.34013,"longitude":63.75288},
{"city":"Kugri","country":"China","latitude":31.0978583,"longitude":77.2678137},
{"city":"Magdug","country":"Philippines","latitude":6.5400402,"longitude":126.084947},
{"city":"Xinjia","country":"China","latitude":42.5246357,"longitude":87.5395855},
{"city":"Ubatuba","country":"Brazil","latitude":-23.4602881,"longitude":-45.0479872},
{"city":"’Unābah","country":"Afghanistan","latitude":35.23251,"longitude":69.37719},
{"city":"Skalánion","country":"Greece","latitude":35.2834512,"longitude":25.1872239},
{"city":"Trieste","country":"Italy","latitude":45.6479728,"longitude":13.7829495},
{"city":"Osięciny","country":"Poland","latitude":52.6282252,"longitude":18.727124},
{"city":"Metsavan","country":"Armenia","latitude":41.2053857,"longitude":44.2309162},
{"city":"Buin","country":"Chile","latitude":-33.7309374,"longitude":-70.7423218},
{"city":"Tadabliro","country":"Indonesia","latitude":-8.6847,"longitude":122.2162},
{"city":"Sunja","country":"Croatia","latitude":45.3686282,"longitude":16.5670285},
{"city":"Bukuru","country":"Nigeria","latitude":9.7652591,"longitude":8.8597095},
{"city":"Payxambabazar","country":"China","latitude":41.477249,"longitude":82.580514},
{"city":"Kíti","country":"Cyprus","latitude":34.855441,"longitude":33.5784007},
{"city":"Sobang","country":"Indonesia","latitude":-6.6111074,"longitude":105.7703287},
{"city":"Laibin","country":"China","latitude":23.750306,"longitude":109.221465},
{"city":"Prakhon Chai","country":"Thailand","latitude":14.6014909,"longitude":103.0933171},
{"city":"Paseyan","country":"Indonesia","latitude":-6.8713485,"longitude":111.639243},
{"city":"Tuamese","country":"Indonesia","latitude":-9.0709033,"longitude":124.7188222},
{"city":"Ettal","country":"Micronesia","latitude":5.5775857,"longitude":153.5799639},
{"city":"Ourovéni","country":"Comoros","latitude":-11.9148486,"longitude":43.4969735},
{"city":"Coronda","country":"Argentina","latitude":-34.7133717,"longitude":-58.7231685},
{"city":"Huayan","country":"China","latitude":32.04141,"longitude":119.595828},
{"city":"Połaniec","country":"Poland","latitude":50.43302,"longitude":21.28065},
{"city":"Businovo","country":"Russia","latitude":55.8824,"longitude":37.489685},
{"city":"Taotang","country":"China","latitude":23.3362272,"longitude":112.7222244},
{"city":"Carcassonne","country":"France","latitude":44.346784,"longitude":5.8855505},
{"city":"Shangyang","country":"China","latitude":35.444497,"longitude":106.73609},
{"city":"Sanxi","country":"China","latitude":37.2425649,"longitude":111.8568586},
{"city":"Banyue","country":"China","latitude":28.2586882,"longitude":108.1171371},
{"city":"Garunggang","country":"Indonesia","latitude":-2.7968956,"longitude":115.1859517},
{"city":"Kabakovo","country":"Russia","latitude":56.6342788,"longitude":36.885813},
{"city":"Djounie","country":"Lebanon","latitude":33.9842691,"longitude":35.6344491},
{"city":"Inkerman","country":"Ukraine","latitude":44.6186368,"longitude":33.6059169},
{"city":"Chenji","country":"China","latitude":25.2747395,"longitude":110.2979995},
{"city":"Armenokhórion","country":"Greece","latitude":40.8024032,"longitude":21.4591344},
{"city":"Miřetice","country":"Czech Republic","latitude":49.835457,"longitude":15.887635},
{"city":"Banjar Susut Kaja","country":"Indonesia","latitude":-8.4355645,"longitude":115.3223438},
{"city":"Tsagaan-Ovoo","country":"Mongolia","latitude":48.5686975,"longitude":113.2344326},
{"city":"Duque de Caxias","country":"Brazil","latitude":-22.7862985,"longitude":-43.3053106},
{"city":"Xinjian","country":"China","latitude":42.5246357,"longitude":87.5395855},
{"city":"Rancapeundey","country":"Indonesia","latitude":-7.3314,"longitude":108.0665},
{"city":"Nova Varoš","country":"Serbia","latitude":43.4676913,"longitude":19.8125507},
{"city":"Rancaerang","country":"Indonesia","latitude":-7.4231763,"longitude":106.719766},
{"city":"Muchkapskiy","country":"Russia","latitude":51.8478427,"longitude":42.4697909},
{"city":"Xuling","country":"China","latitude":42.743284,"longitude":123.35235},
{"city":"Luleå","country":"Sweden","latitude":62.4150445,"longitude":17.2885932},
{"city":"Andahuaylillas","country":"Peru","latitude":-13.674114,"longitude":-71.6777177},
{"city":"Pavlovskaya","country":"Russia","latitude":47.2952721,"longitude":39.8734276},
{"city":"Tanjung Timur","country":"Indonesia","latitude":3.2359747,"longitude":98.6875659},
{"city":"Zblewo","country":"Poland","latitude":53.936,"longitude":18.3177309},
{"city":"Chak","country":"Pakistan","latitude":35.6868993,"longitude":74.6291131},
{"city":"Kyzyl","country":"Russia","latitude":51.7204294,"longitude":94.442401},
{"city":"Burhānuddin","country":"Bangladesh","latitude":22.3121914,"longitude":90.7218441},
{"city":"Quillo","country":"Peru","latitude":-9.32897,"longitude":-78.051987},
{"city":"Anping","country":"China","latitude":38.234501,"longitude":115.519278},
{"city":"Waenenda","country":"Indonesia","latitude":-8.4539,"longitude":120.6359},
{"city":"Madagali","country":"Nigeria","latitude":10.8909284,"longitude":13.6275894},
{"city":"Dalgān","country":"Iran","latitude":27.508801,"longitude":59.333},
{"city":"Ilembula","country":"Tanzania","latitude":-8.9,"longitude":34.583333},
{"city":"Morangis","country":"France","latitude":48.7068855,"longitude":2.3371075},
{"city":"Maloma","country":"Philippines","latitude":15.1163904,"longitude":120.0624898},
{"city":"Sauga","country":"Estonia","latitude":58.4286125,"longitude":24.498407},
{"city":"Dahay","country":"Philippines","latitude":6.39694,"longitude":124.7225},
{"city":"Semey","country":"Kazakhstan","latitude":50.4233463,"longitude":80.250811},
{"city":"Jadranovo","country":"Croatia","latitude":45.2220415,"longitude":14.6312221},
{"city":"Austin","country":"United States","latitude":30.2915328,"longitude":-97.7688358},
{"city":"Mendenrejo","country":"Indonesia","latitude":-7.2422416,"longitude":111.4395128},
{"city":"Conchal","country":"Brazil","latitude":-22.3664524,"longitude":-47.1557087},
{"city":"Cafe","country":"Philippines","latitude":14.554384,"longitude":121.0460866},
{"city":"Kurikka","country":"Finland","latitude":64.9099021,"longitude":25.5080144},
{"city":"Lucas","country":"Brazil","latitude":-20.2197867,"longitude":-40.2721884},
{"city":"Ceelbuur","country":"Somalia","latitude":4.6839135,"longitude":46.6198608},
{"city":"Kawaguchi","country":"Japan","latitude":38.7933106,"longitude":140.2234077},
{"city":"Shuanggang","country":"China","latitude":39.042852,"longitude":117.318781},
{"city":"Nelidovo","country":"Russia","latitude":56.2249698,"longitude":32.771328},
{"city":"Mangere","country":"New Zealand","latitude":-36.9518016,"longitude":174.8398349},
{"city":"Paris 02","country":"France","latitude":43.4945737,"longitude":5.8978018},
{"city":"Puerto Natales","country":"Chile","latitude":-51.7308935,"longitude":-72.4977407},
{"city":"Koropí","country":"Greece","latitude":37.9011442,"longitude":23.8726503},
{"city":"Changmaoling","country":"China","latitude":28.791192,"longitude":111.59717},
{"city":"Pásion","country":"Greece","latitude":38.0134548,"longitude":22.7275436},
{"city":"Qiuchuan","country":"China","latitude":30.829314,"longitude":118.124765},
{"city":"Embu","country":"Kenya","latitude":-0.5388381,"longitude":37.4596409},
{"city":"Leskovac","country":"Serbia","latitude":42.9963758,"longitude":21.944034},
{"city":"Bollène","country":"France","latitude":45.137411,"longitude":3.812874},
{"city":"Oranmore","country":"Ireland","latitude":54.1433253,"longitude":-9.7359765},
{"city":"Yanguan","country":"China","latitude":27.851032,"longitude":120.120494},
{"city":"Canoas","country":"Brazil","latitude":-29.9132584,"longitude":-51.1861921},
{"city":"Arlöv","country":"Sweden","latitude":55.6345009,"longitude":13.0744097},
{"city":"Shuitou","country":"China","latitude":24.705643,"longitude":118.43196},
{"city":"Janja","country":"Bosnia and Herzegovina","latitude":44.666926,"longitude":19.2469148},
{"city":"Salima","country":"Malawi","latitude":-13.7795533,"longitude":34.458641},
{"city":"Charenton-le-Pont","country":"France","latitude":48.8171378,"longitude":2.4196694},
{"city":"Le Havre","country":"France","latitude":48.0386685,"longitude":-2.9231898},
{"city":"Shah Alam","country":"Malaysia","latitude":2.9864896,"longitude":101.5395705},
{"city":"San Rafael","country":"Costa Rica","latitude":9.9436507,"longitude":-84.0166951},
{"city":"El Corozo","country":"Venezuela","latitude":8.5681393,"longitude":-70.3583879},
{"city":"Delmas","country":"South Africa","latitude":-25.877477,"longitude":28.313059},
{"city":"Libice nad Cidlinou","country":"Czech Republic","latitude":50.1267742,"longitude":15.1782064},
{"city":"Kobleve","country":"Ukraine","latitude":46.6274254,"longitude":31.1947408},
{"city":"Naguanagua","country":"Venezuela","latitude":10.2683199,"longitude":-68.0179418},
{"city":"Jaguariúna","country":"Brazil","latitude":-22.7042272,"longitude":-46.9855088},
{"city":"Segezha","country":"Russia","latitude":63.7388395,"longitude":34.3097519},
{"city":"Petropavlovka","country":"Russia","latitude":51.1931661,"longitude":127.563316},
{"city":"Balatero","country":"Philippines","latitude":13.5074239,"longitude":120.9274735},
{"city":"Pionerskiy","country":"Russia","latitude":54.9428925,"longitude":20.2216245},
{"city":"Ereira","country":"Portugal","latitude":39.1762837,"longitude":-8.8661993},
{"city":"Semerak","country":"Indonesia","latitude":-6.576574,"longitude":111.0683954},
{"city":"Pinghu","country":"China","latitude":30.677233,"longitude":121.015142},
{"city":"Khoronk’","country":"Armenia","latitude":40.1361855,"longitude":44.2441818},
{"city":"Gandara","country":"Philippines","latitude":12.013045,"longitude":124.815974},
{"city":"Лабуништа","country":"Macedonia","latitude":41.2687996,"longitude":20.5931318},
{"city":"Lokoja","country":"Nigeria","latitude":7.8023204,"longitude":6.733343},
{"city":"Zuolan","country":"China","latitude":32.142922,"longitude":108.460743},
{"city":"Sananduva","country":"Brazil","latitude":-27.950568,"longitude":-51.8148609},
{"city":"Langsepan","country":"Indonesia","latitude":-8.2030974,"longitude":113.7329154},
{"city":"Seso","country":"Indonesia","latitude":-6.9696362,"longitude":111.4529274},
{"city":"Kuala Lumpur","country":"Malaysia","latitude":3.1523104,"longitude":101.7178316},
{"city":"Amsterdam Oud Zuid en Rivierenbuurt","country":"Netherlands","latitude":52.3444367,"longitude":4.9091171},
{"city":"Kara","country":"Togo","latitude":9.546837,"longitude":1.193264},
{"city":"Mosopa","country":"Botswana","latitude":-24.7762704,"longitude":25.4141193},
{"city":"Shuishi","country":"China","latitude":33.5719791,"longitude":-84.3396421},
{"city":"Puyung","country":"Indonesia","latitude":-8.6899169,"longitude":116.2393209},
{"city":"Noginsk-9","country":"Russia","latitude":56.0764877,"longitude":38.5052448},
{"city":"Concepcion","country":"Philippines","latitude":14.6688068,"longitude":121.1138058},
{"city":"Dijon","country":"France","latitude":45.2977605,"longitude":2.5135985},
{"city":"Kharovsk","country":"Russia","latitude":59.954927,"longitude":40.2195978},
{"city":"Stockholm","country":"Sweden","latitude":59.3019771,"longitude":18.0885223},
{"city":"Ungus-Ungus","country":"Philippines","latitude":5.093026,"longitude":119.808662},
{"city":"Stockholm","country":"Sweden","latitude":47.0166139,"longitude":-68.1430098},
{"city":"Micheng","country":"China","latitude":31.172739,"longitude":115.008163},
{"city":"Saint-Louis","country":"Senegal","latitude":16.0326307,"longitude":-16.4818167},
{"city":"Alicante/Alacant","country":"Spain","latitude":38.3628307,"longitude":-0.5210565},
{"city":"Baon","country":"Philippines","latitude":6.8113706,"longitude":126.0868349},
{"city":"Nybro","country":"Sweden","latitude":56.7813252,"longitude":16.0279817},
{"city":"Krajan Dua Padomasan","country":"Indonesia","latitude":-8.233052,"longitude":113.3100762},
{"city":"Tekes","country":"China","latitude":43.217183,"longitude":81.836206},
{"city":"Lübeck","country":"Germany","latitude":53.903083,"longitude":10.7533775},
{"city":"Kiffa","country":"Mauritania","latitude":16.6258353,"longitude":-11.4055282},
{"city":"Evansville","country":"United States","latitude":37.97,"longitude":-87.5699999},
{"city":"Wanasari Baleran","country":"Indonesia","latitude":-8.4849,"longitude":115.1348},
{"city":"Heting","country":"China","latitude":44.387458,"longitude":-69.586443},
{"city":"Meicheng","country":"China","latitude":28.133945,"longitude":111.656407},
{"city":"Zhanghua","country":"China","latitude":37.029718,"longitude":116.328206},
{"city":"Sanjiang","country":"China","latitude":25.783198,"longitude":109.607675},
{"city":"Huanghu","country":"China","latitude":38.371402,"longitude":117.329949},
{"city":"Amvrosiyivka","country":"Ukraine","latitude":47.8018062,"longitude":38.4885354},
{"city":"Södertälje","country":"Sweden","latitude":59.0883359,"longitude":17.5704656},
{"city":"Marabahan","country":"Indonesia","latitude":-2.9062039,"longitude":114.6905436},
{"city":"Mirriah","country":"Niger","latitude":13.7122103,"longitude":9.1594532},
{"city":"Kopayhorod","country":"Ukraine","latitude":48.85917,"longitude":27.7969},
{"city":"Pojok","country":"Indonesia","latitude":-7.8169756,"longitude":111.9790773},
{"city":"Louny","country":"Czech Republic","latitude":50.3539812,"longitude":13.8033551},
{"city":"Hebei","country":"China","latitude":37.8956594,"longitude":114.9042208},
{"city":"Ruma","country":"Serbia","latitude":45.0075322,"longitude":19.8227166},
{"city":"Molde","country":"Norway","latitude":62.7370249,"longitude":7.1574128},
{"city":"Lubbock","country":"United States","latitude":33.5465493,"longitude":-101.85193},
{"city":"Mokolo","country":"Cameroon","latitude":10.7424589,"longitude":13.8042382},
{"city":"Yvetot","country":"France","latitude":49.6220895,"longitude":0.7501524},
{"city":"Allentown","country":"United States","latitude":40.6,"longitude":-75.47},
{"city":"Girey","country":"Russia","latitude":43.1613333,"longitude":46.0016156},
{"city":"El Alamo","country":"Mexico","latitude":20.9064323,"longitude":-97.6738023},
{"city":"Huangbizhuang","country":"China","latitude":38.240246,"longitude":114.32282},
{"city":"Lille","country":"France","latitude":44.1675867,"longitude":2.0308233},
{"city":"Tangchijie","country":"China","latitude":27.358123,"longitude":110.514837},
{"city":"Al Manshāh","country":"Egypt","latitude":26.4745056,"longitude":31.8002447},
{"city":"Hrotovice","country":"Czech Republic","latitude":49.1077,"longitude":16.0606772},
{"city":"Huanggang","country":"China","latitude":30.453667,"longitude":114.872199},
{"city":"Liushi","country":"China","latitude":28.03825,"longitude":120.892196},
{"city":"Klerksdorp","country":"South Africa","latitude":-26.7649439,"longitude":26.4252906},
{"city":"Yinjiaxi","country":"China","latitude":29.135219,"longitude":110.4185},
{"city":"Sungai Nyamuk","country":"Indonesia","latitude":4.1175121,"longitude":117.8663075},
{"city":"Yangzhou","country":"China","latitude":32.394209,"longitude":119.412939},
{"city":"Lajkovac","country":"Serbia","latitude":44.3669363,"longitude":20.1616645},
{"city":"Fonte Boa da Brincosa","country":"Portugal","latitude":38.9516688,"longitude":-9.4027992},
{"city":"Biała","country":"Poland","latitude":51.9301973,"longitude":19.4450042},
{"city":"Monjarás","country":"Honduras","latitude":13.1981877,"longitude":-87.3785917},
{"city":"Ballitoville","country":"South Africa","latitude":-29.4478273,"longitude":31.2182778},
{"city":"Casal Novo","country":"Portugal","latitude":39.8843177,"longitude":-8.1035981},
{"city":"Magburaka","country":"Sierra Leone","latitude":8.7178672,"longitude":-11.951925},
{"city":"Kalnibolotskaya","country":"Russia","latitude":46.00582,"longitude":40.45682},
{"city":"Roanoke","country":"United States","latitude":42.4681713,"longitude":-83.1589716},
{"city":"Gopaan","country":"Indonesia","latitude":-7.0014,"longitude":112.5106},
{"city":"Xieqiao","country":"China","latitude":25.331778,"longitude":108.040593},
{"city":"Huaicheng","country":"China","latitude":40.882377,"longitude":122.685217},
{"city":"Haiyangsuo","country":"China","latitude":36.813372,"longitude":121.620148},
{"city":"Almere Haven","country":"Netherlands","latitude":52.842561,"longitude":5.7187546},
{"city":"Saribudolok","country":"Indonesia","latitude":2.9370409,"longitude":98.611191},
{"city":"Duraykīsh","country":"Syria","latitude":34.8951038,"longitude":36.1355295},
{"city":"Hägersten","country":"Sweden","latitude":59.2954052,"longitude":17.967939},
{"city":"Budapest","country":"Hungary","latitude":47.510162,"longitude":19.0238539},
{"city":"Villaba","country":"Philippines","latitude":11.1649599,"longitude":124.3922901},
{"city":"Omaha","country":"United States","latitude":41.2921503,"longitude":-96.0573302},
{"city":"Tierp","country":"Sweden","latitude":60.3448681,"longitude":17.4966539},
{"city":"Haixing","country":"China","latitude":38.143169,"longitude":117.497651},
{"city":"Söderköping","country":"Sweden","latitude":58.4710363,"longitude":16.3502006},
{"city":"Denver","country":"United States","latitude":39.8786639,"longitude":-104.6821048},
{"city":"Aengceleng","country":"Indonesia","latitude":-7.7177,"longitude":114.0741},
{"city":"Bensonville","country":"Liberia","latitude":6.446976,"longitude":-10.6182477},
{"city":"Huyunxiang","country":"China","latitude":28.791929,"longitude":116.844706},
{"city":"Gondar","country":"Portugal","latitude":41.4204087,"longitude":-8.3676461},
{"city":"Hengling","country":"China","latitude":24.3158024,"longitude":109.3826264},
{"city":"Taizhou","country":"China","latitude":28.65638,"longitude":121.42076},
{"city":"Myanaung","country":"Myanmar","latitude":18.2707494,"longitude":95.3207069},
{"city":"Ballinteer","country":"Ireland","latitude":53.2767301,"longitude":-6.2554371},
{"city":"Mailsi","country":"Pakistan","latitude":29.7905037,"longitude":72.1747127},
{"city":"Babakanjaya","country":"Indonesia","latitude":-6.2434505,"longitude":106.3684552},
{"city":"Pengwan","country":"China","latitude":30.920727,"longitude":116.670173},
{"city":"Lamalera","country":"Indonesia","latitude":-8.5697306,"longitude":123.3991028},
{"city":"Kingisepp","country":"Russia","latitude":59.3746655,"longitude":28.5939084},
{"city":"Tacarigua","country":"Venezuela","latitude":10.0850213,"longitude":-67.9195741},
{"city":"Yelkhovka","country":"Russia","latitude":53.86668,"longitude":50.28319},
{"city":"Ituiutaba","country":"Brazil","latitude":-18.9745738,"longitude":-49.4600885},
{"city":"Casuguran","country":"Philippines","latitude":14.697103,"longitude":122.365336},
{"city":"Candating","country":"Philippines","latitude":15.1503549,"longitude":120.8129183},
{"city":"Budapest","country":"Hungary","latitude":47.4997688,"longitude":19.0731949},
{"city":"Cheping","country":"China","latitude":34.962575,"longitude":105.480493},
{"city":"Sunjia","country":"China","latitude":34.2589679,"longitude":108.9773385},
{"city":"Fatou","country":"China","latitude":39.793846,"longitude":116.7156302},
{"city":"El Carmen","country":"Argentina","latitude":-43.2744697,"longitude":-65.3109259},
{"city":"Boracéia","country":"Brazil","latitude":-22.1943942,"longitude":-48.7780959},
{"city":"Vila Real de Santo António","country":"Portugal","latitude":37.188956,"longitude":-7.442223},
{"city":"Saint-Denis","country":"Reunion","latitude":-20.893334,"longitude":55.4421425},
{"city":"Zolochiv","country":"Ukraine","latitude":49.80941,"longitude":24.901371},
{"city":"Vera","country":"Argentina","latitude":-31.6577222,"longitude":-60.7829517},
{"city":"Saint-Quentin-en-Yvelines","country":"France","latitude":48.7835538,"longitude":2.0439219},
{"city":"Villaguay","country":"Argentina","latitude":-38.9467974,"longitude":-68.1042424},
{"city":"Ciputih","country":"Indonesia","latitude":-7.1516288,"longitude":108.8373244},
{"city":"Skiáthos","country":"Greece","latitude":39.16352,"longitude":23.4901667},
{"city":"Świlcza","country":"Poland","latitude":50.0579046,"longitude":21.897502},
{"city":"Songgui","country":"China","latitude":22.898014,"longitude":111.773407},
{"city":"Bella Vista","country":"Dominican Republic","latitude":18.4530602,"longitude":-69.9474964},
{"city":"Xiaohebian","country":"China","latitude":23.116912,"longitude":113.30928},
{"city":"Mesquite","country":"United States","latitude":32.7757,"longitude":-96.5983607},
{"city":"Nueva Imperial","country":"Chile","latitude":-38.7445218,"longitude":-72.9482281},
{"city":"Uvarovo","country":"Russia","latitude":52.0016128,"longitude":42.344717},
{"city":"Salto","country":"Uruguay","latitude":-31.3854988,"longitude":-57.9600793},
{"city":"Baoxia","country":"China","latitude":32.707997,"longitude":110.341615},
{"city":"San Francisco","country":"Philippines","latitude":8.508983,"longitude":125.969667},
{"city":"Heredia","country":"Costa Rica","latitude":9.979992,"longitude":-84.158761},
{"city":"Zarichne","country":"Ukraine","latitude":51.8063451,"longitude":26.0265105},
{"city":"Cimaragas","country":"Indonesia","latitude":-7.3742259,"longitude":108.4454089},
{"city":"Erdu","country":"China","latitude":27.450156,"longitude":116.176742},
{"city":"Postojna","country":"Slovenia","latitude":45.7830298,"longitude":14.2038417},
{"city":"Senneterre","country":"Canada","latitude":48.39302,"longitude":-77.23951},
{"city":"Lüderitz","country":"Namibia","latitude":-26.6420382,"longitude":15.1639082},
{"city":"Xiaomiaozi","country":"China","latitude":29.956538,"longitude":106.375509},
{"city":"Rybache","country":"Ukraine","latitude":44.7739151,"longitude":34.5968895},
{"city":"Xixia","country":"China","latitude":33.298364,"longitude":111.482591},
{"city":"Banjar","country":"Indonesia","latitude":-7.3706874,"longitude":108.5342487},
{"city":"Güira de Melena","country":"Cuba","latitude":22.795672,"longitude":-82.5131717},
{"city":"Hejiang","country":"China","latitude":29.1416432,"longitude":119.7889248},
{"city":"Orvalho","country":"Portugal","latitude":40.0233496,"longitude":-7.7912472},
{"city":"Tsimlyansk","country":"Russia","latitude":47.6451517,"longitude":42.0889476},
{"city":"Abreu e Lima","country":"Brazil","latitude":-7.9011493,"longitude":-34.8987086},
{"city":"Concordia","country":"Honduras","latitude":14.6322366,"longitude":-86.6736997},
{"city":"Toulouse","country":"France","latitude":47.785421,"longitude":-3.2602564},
{"city":"Zhaizigou","country":"China","latitude":33.881885,"longitude":105.538243},
{"city":"Privodino","country":"Russia","latitude":61.0816055,"longitude":46.4952164},
{"city":"Xushan","country":"China","latitude":30.183806,"longitude":120.264253},
{"city":"Vilela","country":"Portugal","latitude":41.2365246,"longitude":-8.3826794},
{"city":"Ladushkin","country":"Russia","latitude":54.5728766,"longitude":20.1764433},
{"city":"Bintang","country":"Indonesia","latitude":4.5475154,"longitude":97.1574784},
{"city":"Skaramangás","country":"Greece","latitude":38.0113874,"longitude":23.6027231},
{"city":"Ústí nad Labem","country":"Czech Republic","latitude":50.7070737,"longitude":14.0050148},
{"city":"Astana","country":"Kazakhstan","latitude":51.1605227,"longitude":71.4703558},
{"city":"Tío Pujio","country":"Argentina","latitude":-31.476524,"longitude":-64.2257559},
{"city":"Hallstahammar","country":"Sweden","latitude":59.6132041,"longitude":16.2294755},
{"city":"Tylicz","country":"Poland","latitude":49.3883764,"longitude":21.0533447},
{"city":"Santa Cruz","country":"Venezuela","latitude":10.1819305,"longitude":-67.5082709},
{"city":"Lipovljani","country":"Croatia","latitude":45.3982443,"longitude":16.8946158},
{"city":"Tours","country":"France","latitude":47.3892142,"longitude":0.6942885},
{"city":"Shigongqiao","country":"China","latitude":29.182182,"longitude":111.869272},
{"city":"Piraí do Sul","country":"Brazil","latitude":-24.4748345,"longitude":-49.8956943},
{"city":"Haoshui","country":"China","latitude":35.66063,"longitude":106.110673},
{"city":"Manding","country":"Indonesia","latitude":0.93669,"longitude":100.663597},
{"city":"Banes","country":"Cuba","latitude":20.9570351,"longitude":-75.7197039},
{"city":"Peachland","country":"Canada","latitude":49.76647,"longitude":-119.73568},
{"city":"Ivanishchi","country":"Russia","latitude":55.7754263,"longitude":40.4248943},
{"city":"Wang Noi","country":"Thailand","latitude":14.2524816,"longitude":100.7323332},
{"city":"Undurkhaan","country":"Mongolia","latitude":47.3178096,"longitude":110.6535448},
{"city":"Sumberwaru","country":"Indonesia","latitude":-7.798868,"longitude":114.3579131},
{"city":"Shangjia","country":"China","latitude":31.2303904,"longitude":121.4737021},
{"city":"Jamaica","country":"United States","latitude":40.69,"longitude":-73.81},
{"city":"Baardheere","country":"Somalia","latitude":2.3390467,"longitude":42.2880059},
{"city":"Ulimonong","country":"Indonesia","latitude":-8.2399,"longitude":124.4052},
{"city":"Roanoke","country":"United States","latitude":37.27,"longitude":-79.94},
{"city":"Grand-Bassam","country":"Ivory Coast","latitude":5.225936,"longitude":-3.7536663},
{"city":"Slobodskoy","country":"Russia","latitude":58.7113992,"longitude":50.1706415},
{"city":"Shiozawa","country":"Japan","latitude":38.0974088,"longitude":140.6725677},
{"city":"Berezovo","country":"Ukraine","latitude":48.3018611,"longitude":23.4764363},
{"city":"Zubin Potok","country":"Kosovo","latitude":42.9148171,"longitude":20.6897443},
{"city":"Pawili","country":"Philippines","latitude":13.5260215,"longitude":123.2925505},
{"city":"Leiyang","country":"China","latitude":26.422277,"longitude":112.859759},
{"city":"Andovoranto","country":"Madagascar","latitude":-18.9549753,"longitude":49.1082407},
{"city":"Toledo","country":"United States","latitude":41.64,"longitude":-83.54},
{"city":"Buenavista","country":"Philippines","latitude":8.972681,"longitude":125.408732},
{"city":"Purwasari","country":"Indonesia","latitude":-6.3660452,"longitude":107.4144526},
{"city":"Tabant","country":"Morocco","latitude":31.6584818,"longitude":-6.4103979},
{"city":"Shifang","country":"China","latitude":31.12678,"longitude":104.167501},
{"city":"Daojiang","country":"China","latitude":23.883531,"longitude":110.666614},
{"city":"Longzui","country":"China","latitude":39.2752729,"longitude":118.4500421},
{"city":"Khadyzhensk","country":"Russia","latitude":44.418695,"longitude":39.5314274},
{"city":"Nikolayevka","country":"Russia","latitude":54.1451,"longitude":45.1444},
{"city":"Héroumbili","country":"Comoros","latitude":-11.5459875,"longitude":43.3885797},
{"city":"Khān Neshīn","country":"Afghanistan","latitude":30.550638,"longitude":63.78141},
{"city":"Yaguaraparo","country":"Venezuela","latitude":10.5703809,"longitude":-62.8294091},
{"city":"Riyue","country":"China","latitude":22.5493001,"longitude":114.1250751},
{"city":"Sambong","country":"Indonesia","latitude":-6.9122509,"longitude":109.7457739},
{"city":"Qarchī Gak","country":"Afghanistan","latitude":37.0259658,"longitude":66.7784206},
{"city":"Ghauspur","country":"Pakistan","latitude":28.1385576,"longitude":69.0827863},
{"city":"Kaustinen","country":"Finland","latitude":63.537266,"longitude":23.6993197},
{"city":"Benito Juarez","country":"Mexico","latitude":22.2016816,"longitude":-97.8367954},
{"city":"Lushikeng","country":"China","latitude":26.648393,"longitude":110.153093},
{"city":"Dolní Bečva","country":"Czech Republic","latitude":49.4679131,"longitude":18.2282007},
{"city":"Zhonghouhe","country":"China","latitude":41.187621,"longitude":111.062933},
{"city":"Bonao","country":"Dominican Republic","latitude":18.9364797,"longitude":-70.41976},
{"city":"Dongkeng","country":"China","latitude":22.995838,"longitude":113.933872},
{"city":"Shilong","country":"China","latitude":23.105394,"longitude":113.874335},
{"city":"Cesvaine","country":"Latvia","latitude":56.9651439,"longitude":26.3110469},
{"city":"Akita","country":"Japan","latitude":35.3179014,"longitude":136.9037455},
{"city":"Shihui","country":"China","latitude":23.327001,"longitude":112.734103},
{"city":"Funaishikawa","country":"Japan","latitude":36.4707823,"longitude":140.5615795},
{"city":"Longlou","country":"China","latitude":37.646108,"longitude":120.477813},
{"city":"Bondoboghila","country":"Indonesia","latitude":-9.4116,"longitude":119.3532},
{"city":"Lenchwe Le Tau","country":"Botswana","latitude":-24.383333,"longitude":25.85},
{"city":"Ribeirão das Neves","country":"Brazil","latitude":-19.7619024,"longitude":-44.0853572},
{"city":"Maszewo Duże","country":"Poland","latitude":52.579839,"longitude":19.6295361},
{"city":"Rosice","country":"Czech Republic","latitude":49.3320487,"longitude":15.6123444},
{"city":"Sendafa","country":"Ethiopia","latitude":9.1495559,"longitude":39.0241756},
{"city":"Devon","country":"Canada","latitude":53.3547991,"longitude":-113.7233907},
{"city":"Jönköping","country":"Sweden","latitude":57.778556,"longitude":14.1619341},
{"city":"San Diego","country":"Venezuela","latitude":10.2535534,"longitude":-67.9583246},
{"city":"Tsybulevka","country":"Ukraine","latitude":47.4047584,"longitude":29.1057554},
{"city":"Sibubuhan","country":"Indonesia","latitude":1.0673379,"longitude":99.734444},
{"city":"Cheban","country":"China","latitude":21.5233008,"longitude":109.8301973},
{"city":"Santo Tomas","country":"Philippines","latitude":7.5273576,"longitude":125.6239227},
{"city":"Satte","country":"Japan","latitude":36.0821986,"longitude":139.7249685},
{"city":"Ganyan","country":"China","latitude":29.275625,"longitude":110.790339},
{"city":"Pinghu","country":"China","latitude":30.677233,"longitude":121.015142},
{"city":"Canomoy","country":"Philippines","latitude":12.1409532,"longitude":123.2760396},
{"city":"Novonukutskiy","country":"Russia","latitude":53.7002,"longitude":102.7117},
{"city":"Vällingby","country":"Sweden","latitude":59.3729008,"longitude":17.8567134},
{"city":"Novoukrayinka","country":"Ukraine","latitude":48.3226457,"longitude":31.5187617},
{"city":"Pavia","country":"Portugal","latitude":38.8944448,"longitude":-8.0208303},
{"city":"Banikoara","country":"Benin","latitude":11.2934532,"longitude":2.435696},
{"city":"Bidbid","country":"Oman","latitude":23.4069561,"longitude":58.1252383},
{"city":"Nanshan","country":"China","latitude":22.533012,"longitude":113.930475},
{"city":"Montecristi","country":"Ecuador","latitude":-1.0469378,"longitude":-80.6576623},
{"city":"Luofang","country":"China","latitude":34.620202,"longitude":112.453926},
{"city":"Qorveh","country":"Iran","latitude":35.1678934,"longitude":47.8038272},
{"city":"Parthenay","country":"France","latitude":46.6322044,"longitude":-0.5664231},
{"city":"Butterworth","country":"Malaysia","latitude":5.5156762,"longitude":100.4188073},
{"city":"Khoa","country":"Laos","latitude":21.077764,"longitude":102.5097274},
{"city":"Chikushino-shi","country":"Japan","latitude":33.5147935,"longitude":130.4936331},
{"city":"Maulawin","country":"Philippines","latitude":14.2813218,"longitude":121.4106742},
{"city":"Český Těšín","country":"Czech Republic","latitude":49.7192421,"longitude":18.591659},
{"city":"Zhigalovo","country":"Russia","latitude":54.7991023,"longitude":105.1718357},
{"city":"Timóteo","country":"Brazil","latitude":-19.538062,"longitude":-42.64911},
{"city":"Sansheng","country":"China","latitude":23.561556,"longitude":101.273161},
{"city":"Zhangcun","country":"China","latitude":43.817071,"longitude":125.323544},
{"city":"Riangbaring","country":"Indonesia","latitude":-8.6091128,"longitude":122.7781579},
{"city":"Sukacai Tengah","country":"Indonesia","latitude":-6.3517,"longitude":105.8652},
{"city":"Le Mans","country":"France","latitude":47.9956173,"longitude":0.1924459},
{"city":"Huangyang","country":"China","latitude":28.650072,"longitude":121.261886},
{"city":"Västervik","country":"Sweden","latitude":57.7662174,"longitude":16.5983762},
{"city":"Đắk Mil","country":"Vietnam","latitude":12.5049537,"longitude":107.6925674},
{"city":"San Felipe","country":"Costa Rica","latitude":19.8022278,"longitude":-98.7067059},
{"city":"Doko","country":"Indonesia","latitude":-8.0464521,"longitude":112.3933836},
{"city":"Molodohvardiys’k","country":"Ukraine","latitude":48.3477045,"longitude":39.6490172},
{"city":"El Potrero","country":"Mexico","latitude":19.638192,"longitude":-99.079824},
{"city":"Évreux","country":"France","latitude":49.0261841,"longitude":1.1518478},
{"city":"Tepusteca","country":"Honduras","latitude":15.4726227,"longitude":-86.2945627},
{"city":"Talok","country":"Indonesia","latitude":1.05,"longitude":118.8},
{"city":"Hägersten","country":"Sweden","latitude":59.2832062,"longitude":17.9570059},
{"city":"Bayan Bulag","country":"China","latitude":45.0152528,"longitude":98.9366407},
{"city":"Xinzha","country":"China","latitude":38.416663,"longitude":112.734174},
{"city":"Vila Verde","country":"Portugal","latitude":41.6427177,"longitude":-8.4353332},
{"city":"Pinyug","country":"Russia","latitude":60.2496387,"longitude":47.7885614},
{"city":"Kuryłówka","country":"Poland","latitude":50.3068281,"longitude":22.5169584},
{"city":"Pittsburgh","country":"United States","latitude":40.5,"longitude":-80.06},
{"city":"Tigre","country":"Argentina","latitude":-34.7063243,"longitude":-58.4776004},
{"city":"Mastaiciai","country":"Lithuania","latitude":54.81998,"longitude":23.84462},
{"city":"Yanghong","country":"China","latitude":34.513586,"longitude":108.317445},
{"city":"Purda","country":"Poland","latitude":53.7109905,"longitude":20.6879247},
{"city":"Qui Nhon","country":"Vietnam","latitude":13.7829673,"longitude":109.2196634},
{"city":"Cabudare","country":"Venezuela","latitude":10.0192191,"longitude":-69.2519936},
{"city":"Naschel","country":"Argentina","latitude":-32.9150009,"longitude":-65.3749466},
{"city":"Makin Village","country":"Kiribati","latitude":3.1166667,"longitude":172.8},
{"city":"Wan’an","country":"China","latitude":26.458254,"longitude":114.786182},
{"city":"Murakami","country":"Japan","latitude":37.4412077,"longitude":139.8800727},
{"city":"Zhenzhushan","country":"China","latitude":29.185721,"longitude":117.468181},
{"city":"Wolong","country":"China","latitude":31.03094,"longitude":103.183075},
{"city":"Chrysoúpolis","country":"Greece","latitude":40.9880227,"longitude":24.6966476},
{"city":"Neietsu","country":"South Korea","latitude":37.18447,"longitude":128.46821},
{"city":"Voronkov","country":"Ukraine","latitude":50.2227764,"longitude":30.903976},
{"city":"Conchamarca","country":"Peru","latitude":-10.05,"longitude":-76.166667},
{"city":"Orguz","country":"Bosnia and Herzegovina","latitude":43.7745094,"longitude":16.8628891},
{"city":"Weitang","country":"China","latitude":31.463475,"longitude":120.649341},
{"city":"Voronezh","country":"Russia","latitude":51.7421319,"longitude":39.1374839},
{"city":"Czerniewice","country":"Poland","latitude":51.6711341,"longitude":20.1795118},
{"city":"Tempursari Wetan","country":"Indonesia","latitude":-8.0522,"longitude":112.4885},
{"city":"Arras","country":"France","latitude":50.2837307,"longitude":2.7425682},
{"city":"Capayán","country":"Argentina","latitude":-28.4481029,"longitude":-65.7905325},
{"city":"Mingyu","country":"China","latitude":30.715704,"longitude":104.02753},
{"city":"Tralee","country":"Ireland","latitude":52.2413206,"longitude":-7.0833118},
{"city":"Tubalan","country":"Philippines","latitude":6.4758334,"longitude":125.5633316},
{"city":"Pakuwon","country":"Indonesia","latitude":-7.2157251,"longitude":107.901989},
{"city":"Anastácio","country":"Brazil","latitude":-20.4827446,"longitude":-55.8108596},
{"city":"Akron","country":"United States","latitude":41.0285407,"longitude":-81.4633516},
{"city":"Nossa Senhora da Glória","country":"Brazil","latitude":-10.2156554,"longitude":-37.4212807},
{"city":"Aparecida do Taboado","country":"Brazil","latitude":-20.0877391,"longitude":-51.0966063},
{"city":"Desa Borogojol","country":"Indonesia","latitude":-7.034968,"longitude":108.1725154},
{"city":"Sijunjung","country":"Indonesia","latitude":-0.6647007,"longitude":101.0711758},
{"city":"Fraga","country":"Portugal","latitude":41.136319,"longitude":-8.2053479},
{"city":"Belize City","country":"Belize","latitude":17.5045661,"longitude":-88.1962133},
{"city":"Dananyu","country":"China","latitude":39.8067,"longitude":116.030192},
{"city":"Ceadîr-Lunga","country":"Moldova","latitude":46.0573473,"longitude":28.8253483},
{"city":"San Francisco","country":"Costa Rica","latitude":9.7016493,"longitude":-84.1005807},
{"city":"Mellila","country":"Morocco","latitude":35.2922775,"longitude":-2.9380973},
{"city":"Timbó","country":"Brazil","latitude":-26.8251371,"longitude":-49.26952},
{"city":"Bangbayang","country":"Indonesia","latitude":-6.8734228,"longitude":107.074614},
{"city":"Lanas","country":"Philippines","latitude":18.1686828,"longitude":120.7050032},
{"city":"Eslāmābād","country":"Iran","latitude":38.1304493,"longitude":47.9437099},
{"city":"Ulanov","country":"Ukraine","latitude":49.6911273,"longitude":28.1308882},
{"city":"Valerik","country":"Russia","latitude":43.1795227,"longitude":45.4045219},
{"city":"Tongqiao","country":"China","latitude":23.035191,"longitude":114.300299},
{"city":"Daet","country":"Philippines","latitude":14.097615,"longitude":122.956811},
{"city":"Hua Hin","country":"Thailand","latitude":12.5683747,"longitude":99.9576888},
{"city":"Bárrio","country":"Portugal","latitude":41.7958532,"longitude":-8.5356936},
{"city":"Ilha Solteira","country":"Brazil","latitude":-20.4363727,"longitude":-51.3050851},
{"city":"Santa Maria","country":"Mexico","latitude":25.5822549,"longitude":-100.9086492},
{"city":"Kašina","country":"Croatia","latitude":45.9113179,"longitude":16.1242534},
{"city":"Małdyty","country":"Poland","latitude":53.918411,"longitude":19.7442821},
{"city":"Cotovia","country":"Portugal","latitude":38.4700063,"longitude":-9.1024534},
{"city":"Cipaku","country":"Indonesia","latitude":-7.0631844,"longitude":107.7843483},
{"city":"Toliara","country":"Madagascar","latitude":-23.3516191,"longitude":43.6854936},
{"city":"Roma","country":"Mexico","latitude":19.4095846,"longitude":-99.1575732},
{"city":"Obonoma","country":"Nigeria","latitude":4.6845489,"longitude":6.7815237},
{"city":"Hukou","country":"China","latitude":29.731101,"longitude":116.251947},
{"city":"Kiruru","country":"Indonesia","latitude":-3.9389,"longitude":134.9696},
{"city":"Safi","country":"Jordan","latitude":31.975951,"longitude":35.853029},
{"city":"Koszarawa","country":"Poland","latitude":49.6574026,"longitude":19.4151148},
{"city":"Seke","country":"China","latitude":29.742172,"longitude":103.583042},
{"city":"Kizilyurt","country":"Russia","latitude":43.0717734,"longitude":46.8488828},
{"city":"El Potrero","country":"Mexico","latitude":19.638192,"longitude":-99.079824},
{"city":"Cipari","country":"Indonesia","latitude":-7.4066528,"longitude":108.7719766},
{"city":"Aimorés","country":"Brazil","latitude":-19.4959312,"longitude":-41.0713439},
{"city":"Veliko Tŭrnovo","country":"Bulgaria","latitude":43.0892761,"longitude":25.5163421},
{"city":"Huyang","country":"China","latitude":22.9353419,"longitude":113.6587617},
{"city":"Charyshskoye","country":"Russia","latitude":51.3978,"longitude":83.5598},
{"city":"Makurazaki","country":"Japan","latitude":31.2840967,"longitude":130.3267278},
{"city":"Sozopol","country":"Bulgaria","latitude":42.4099129,"longitude":27.7009454},
{"city":"Amahusu","country":"Indonesia","latitude":-3.7331933,"longitude":128.1530099},
{"city":"Fukushima-shi","country":"Japan","latitude":34.6951012,"longitude":135.487633},
{"city":"Masḩah","country":"Palestinian Territory","latitude":32.10828,"longitude":35.05096},
{"city":"Kafir Qala","country":"Afghanistan","latitude":34.66667,"longitude":61.06667},
{"city":"Plaju","country":"Indonesia","latitude":-2.9997434,"longitude":104.8162784},
{"city":"Bailu","country":"China","latitude":29.4837527,"longitude":116.0460867},
{"city":"Minle","country":"China","latitude":38.430793,"longitude":100.812859},
{"city":"Santo Domingo","country":"Nicaragua","latitude":12.2651512,"longitude":-85.0778886},
{"city":"Jinotepe","country":"Nicaragua","latitude":11.8495208,"longitude":-86.1980589},
{"city":"Songfeng","country":"China","latitude":28.362805,"longitude":118.400294},
{"city":"Mačkovec","country":"Croatia","latitude":46.4244411,"longitude":16.4312318},
{"city":"Kuvshinovo","country":"Russia","latitude":52.5999819,"longitude":39.5170628},
{"city":"North Battleford","country":"Canada","latitude":52.7785658,"longitude":-108.2930839},
{"city":"Bugarama","country":"Tanzania","latitude":-2.8670033,"longitude":30.5322273},
{"city":"Jinshanwei","country":"China","latitude":30.741203,"longitude":121.300071},
{"city":"Cernik","country":"Croatia","latitude":45.3481651,"longitude":14.5032137},
{"city":"Alcantara","country":"Philippines","latitude":12.2551576,"longitude":122.0533593},
{"city":"Koga","country":"Japan","latitude":32.9320578,"longitude":130.5063545},
{"city":"Chang’an","country":"China","latitude":34.158997,"longitude":108.906994},
{"city":"Dugu","country":"China","latitude":38.400112,"longitude":114.866414},
{"city":"Minh Long","country":"Vietnam","latitude":14.9659262,"longitude":108.6888227},
{"city":"Guisguis","country":"Philippines","latitude":13.9008751,"longitude":121.486094},
{"city":"Pragen Selatan","country":"Indonesia","latitude":-6.7888012,"longitude":111.466342},
{"city":"Clarin","country":"Philippines","latitude":8.5531389,"longitude":123.7669004},
{"city":"San Francisco","country":"Mexico","latitude":20.8965838,"longitude":-105.4093552},
{"city":"Huangbizhuang","country":"China","latitude":38.240246,"longitude":114.32282},
{"city":"Mancha Khiri","country":"Thailand","latitude":16.2107446,"longitude":102.4839212},
{"city":"Nyamanari","country":"Gambia","latitude":13.3304675,"longitude":-13.8694543},
{"city":"Stockholm","country":"Sweden","latitude":59.3257766,"longitude":18.0470069},
{"city":"Lyon","country":"France","latitude":43.0429124,"longitude":1.9038837},
{"city":"Pernå","country":"Finland","latitude":60.1946148,"longitude":24.9584208},
{"city":"Tokār","country":"Sudan","latitude":18.0616657,"longitude":37.8087693},
{"city":"Jinsha","country":"China","latitude":30.679359,"longitude":104.011664},
{"city":"Kanggye-si","country":"North Korea","latitude":40.9676726,"longitude":126.5990916},
{"city":"Bontang Baru","country":"Indonesia","latitude":0.1429969,"longitude":117.4938098},
{"city":"Chengmagang","country":"China","latitude":31.354368,"longitude":114.982355},
{"city":"Severoural’sk","country":"Russia","latitude":60.1518638,"longitude":59.9684485},
{"city":"Chur","country":"Switzerland","latitude":46.8615704,"longitude":9.5262115},
{"city":"Pelabuhanratu","country":"Indonesia","latitude":-6.9852341,"longitude":106.5475399},
{"city":"Fundong","country":"Cameroon","latitude":6.2820276,"longitude":10.2852532},
{"city":"Florestópolis","country":"Brazil","latitude":-22.8664464,"longitude":-51.3906526},
{"city":"Mangkon Daja","country":"Indonesia","latitude":-7.5002292,"longitude":107.9739244},
{"city":"Ban Phai","country":"Thailand","latitude":16.1169002,"longitude":102.7020218},
{"city":"Juan L. Lacaze","country":"Uruguay","latitude":-34.421323,"longitude":-57.4485845},
{"city":"Plavsk","country":"Russia","latitude":53.7111077,"longitude":37.29209},
{"city":"Ust’-Labinsk","country":"Russia","latitude":45.1888273,"longitude":39.6438647},
{"city":"Vigo","country":"Spain","latitude":42.2390986,"longitude":-8.6848147},
{"city":"Bojonggaling","country":"Indonesia","latitude":-6.9897256,"longitude":106.6468148},
{"city":"Kyaikto","country":"Myanmar","latitude":17.3124678,"longitude":97.0149006},
{"city":"West End","country":"Bahamas","latitude":26.6866896,"longitude":-78.9712451},
{"city":"Christchurch","country":"New Zealand","latitude":-43.5210758,"longitude":172.6317809},
{"city":"Atsugi","country":"Japan","latitude":35.4394848,"longitude":139.3722959},
{"city":"Nizhneivkino","country":"Russia","latitude":58.1951391,"longitude":49.5179263},
{"city":"Pando","country":"Uruguay","latitude":-34.7117766,"longitude":-55.963705},
{"city":"Carenang Lor","country":"Indonesia","latitude":-6.0802849,"longitude":106.3110622},
{"city":"Lijie","country":"China","latitude":31.221597,"longitude":121.409352},
{"city":"Shiyu","country":"China","latitude":26.0952694,"longitude":119.3062749},
{"city":"Rosais","country":"Portugal","latitude":38.7191234,"longitude":-28.2519314},
{"city":"Cachan","country":"France","latitude":48.7877067,"longitude":2.3300777},
{"city":"Santo Antônio de Jesus","country":"Brazil","latitude":-12.9698503,"longitude":-39.2617368},
{"city":"Yakymivka","country":"Ukraine","latitude":46.6974533,"longitude":35.165005},
{"city":"Banraeaba Village","country":"Kiribati","latitude":1.968543,"longitude":-157.3936469},
{"city":"Clermont-Ferrand","country":"France","latitude":45.783131,"longitude":3.0742866},
{"city":"Veliki Grđevac","country":"Croatia","latitude":45.7544209,"longitude":17.049649},
{"city":"San Roque","country":"Philippines","latitude":12.532252,"longitude":124.870243},
{"city":"Tabia","country":"Morocco","latitude":32.0302286,"longitude":-6.7969224},
{"city":"Danauparis","country":"Indonesia","latitude":2.298952,"longitude":98.1120116},
{"city":"Udi","country":"Nigeria","latitude":6.3203695,"longitude":7.4083958},
{"city":"Nové Sedlo","country":"Czech Republic","latitude":50.3396453,"longitude":13.4748408},
{"city":"Sumberejo","country":"Indonesia","latitude":-7.2030729,"longitude":112.0237903},
{"city":"Zibreira","country":"Portugal","latitude":39.4825368,"longitude":-8.609605},
{"city":"Padova","country":"Italy","latitude":45.4266466,"longitude":11.9259985},
{"city":"Mambago","country":"Philippines","latitude":7.1089121,"longitude":125.6925429},
{"city":"Yaguachi Nuevo","country":"Ecuador","latitude":-2.0983597,"longitude":-79.6923047},
{"city":"Condoroma","country":"Peru","latitude":-15.25055,"longitude":-71.0927279},
{"city":"Dongtang","country":"China","latitude":39.302809,"longitude":99.275837},
{"city":"Mesa","country":"Indonesia","latitude":0.400097,"longitude":128.281906},
{"city":"Na Chaluai","country":"Thailand","latitude":14.5520342,"longitude":105.1960795},
{"city":"Nagcarlan","country":"Philippines","latitude":14.1967923,"longitude":121.4019727},
{"city":"North Saanich","country":"Canada","latitude":48.6197483,"longitude":-123.4169098},
{"city":"Badai","country":"China","latitude":46.666415,"longitude":123.169189},
{"city":"Woippy","country":"France","latitude":49.1698106,"longitude":6.1200844},
{"city":"Ganchazi","country":"China","latitude":43.24417,"longitude":127.181168},
{"city":"Berendeyevo","country":"Russia","latitude":43.9480111,"longitude":39.3104788},
{"city":"Pretana","country":"Indonesia","latitude":-9.6161,"longitude":119.6441},
{"city":"Tanguiéta","country":"Benin","latitude":10.6227552,"longitude":1.2650349},
{"city":"Molde","country":"Norway","latitude":62.7371552,"longitude":7.1608614},
{"city":"Aral","country":"China","latitude":40.547653,"longitude":81.280527},
{"city":"Akita Shi","country":"Japan","latitude":35.7412836,"longitude":140.5951813},
{"city":"Batiano","country":"Philippines","latitude":10.6934511,"longitude":122.4801854},
{"city":"New York City","country":"United States","latitude":40.7608571,"longitude":-73.9681265},
{"city":"Dorchester","country":"Canada","latitude":45.900828,"longitude":-64.5169467},
{"city":"Dubiecko","country":"Poland","latitude":49.8279218,"longitude":22.3924149},
{"city":"Tegalheras","country":"Indonesia","latitude":-7.2789,"longitude":107.0659},
{"city":"Grängesberg","country":"Sweden","latitude":60.0715764,"longitude":15.0050581},
{"city":"Pappadátes","country":"Greece","latitude":39.3134407,"longitude":20.7929638},
{"city":"Starychi","country":"Ukraine","latitude":49.9742883,"longitude":23.5488713},
{"city":"Barda","country":"Azerbaijan","latitude":40.3706555,"longitude":47.1378909},
{"city":"Jaunpiebalga","country":"Latvia","latitude":57.1770444,"longitude":26.0336703},
{"city":"La Eduvigis","country":"Argentina","latitude":-33.5329865,"longitude":-70.6351119},
{"city":"Anhua Daying","country":"China","latitude":24.414825,"longitude":102.665768},
{"city":"Paciran","country":"Indonesia","latitude":-6.8892965,"longitude":112.3635806},
{"city":"Nurlat","country":"Russia","latitude":54.3231922,"longitude":50.8118074},
{"city":"Dongming","country":"China","latitude":35.289368,"longitude":115.089905},
{"city":"Saumur","country":"France","latitude":47.2623398,"longitude":-0.1393138},
{"city":"Gimo","country":"Sweden","latitude":60.1734181,"longitude":18.1771765},
{"city":"Guandiping","country":"China","latitude":29.588771,"longitude":110.442349},
{"city":"Krasnyy Yar","country":"Russia","latitude":55.2402058,"longitude":72.9177892},
{"city":"Rio Grande da Serra","country":"Brazil","latitude":-23.749953,"longitude":-46.39769},
{"city":"Tual","country":"Indonesia","latitude":-5.5680317,"longitude":132.3446399},
{"city":"Māwiyah","country":"Yemen","latitude":13.6192978,"longitude":44.3668052},
{"city":"Zbarazh","country":"Ukraine","latitude":49.6669762,"longitude":25.7723085},
{"city":"Cacheu","country":"Guinea-Bissau","latitude":12.2732631,"longitude":-16.1669156},
{"city":"Poříčí nad Sázavou","country":"Czech Republic","latitude":49.83258,"longitude":14.6843228},
{"city":"Huangtan","country":"China","latitude":28.650072,"longitude":121.261886},
{"city":"Xinzhou","country":"China","latitude":38.416663,"longitude":112.734174},
{"city":"Boldumsaz","country":"Turkmenistan","latitude":42.1261418,"longitude":59.6665153},
{"city":"Bao’an","country":"China","latitude":22.555259,"longitude":113.884019},
{"city":"Jiuxian","country":"China","latitude":25.130594,"longitude":109.768451},
{"city":"Xingang","country":"China","latitude":39.0063718,"longitude":117.6852235},
{"city":"Shanghu","country":"China","latitude":31.2303904,"longitude":121.4737021},
{"city":"Brive-la-Gaillarde","country":"France","latitude":45.1433372,"longitude":1.4739649},
{"city":"Kenarilang","country":"Indonesia","latitude":-8.2206994,"longitude":124.5029869},
{"city":"Lazurne","country":"Ukraine","latitude":46.0771644,"longitude":32.5299379},
{"city":"Benavila","country":"Portugal","latitude":39.1110776,"longitude":-7.8704768},
{"city":"Viljandi","country":"Estonia","latitude":58.367135,"longitude":25.5974276},
{"city":"Osasco","country":"Brazil","latitude":-23.5328871,"longitude":-46.7919978},
{"city":"Kendalngupuk","country":"Indonesia","latitude":-7.4435,"longitude":107.2553},
{"city":"Březová","country":"Czech Republic","latitude":49.794945,"longitude":17.865273},
{"city":"Ormož","country":"Slovenia","latitude":46.4086282,"longitude":16.1508154},
{"city":"San Pedro","country":"Belize","latitude":17.9213664,"longitude":-87.9610905},
{"city":"Siluman","country":"Indonesia","latitude":-6.4146234,"longitude":107.5593913},
{"city":"Uptar","country":"Russia","latitude":59.9000274,"longitude":150.8632131},
{"city":"El Congo","country":"El Salvador","latitude":13.9051904,"longitude":-89.5002027},
{"city":"Bieto","country":"Indonesia","latitude":-10.28917,"longitude":123.70037},
{"city":"Tadjoura","country":"Djibouti","latitude":11.7913106,"longitude":42.8796227},
{"city":"Pandean","country":"Indonesia","latitude":-7.6426348,"longitude":112.7032945},
{"city":"Gostivar","country":"Macedonia","latitude":41.8036152,"longitude":20.9182981},
{"city":"Jiahe","country":"China","latitude":25.587519,"longitude":112.36902},
{"city":"Caeté","country":"Brazil","latitude":-19.8852788,"longitude":-43.6644238},
{"city":"Qidu","country":"China","latitude":26.766584,"longitude":119.548497},
{"city":"Guadalupe","country":"Peru","latitude":-7.2452522,"longitude":-79.4760133},
{"city":"Dobri Dol","country":"Macedonia","latitude":41.8632851,"longitude":20.9095433},
{"city":"Luoqi","country":"China","latitude":29.5846375,"longitude":106.5042786},
{"city":"Citalahab","country":"Indonesia","latitude":-7.4813316,"longitude":108.4187029},
{"city":"Bagumbayan","country":"Philippines","latitude":14.5919106,"longitude":121.0228804},
{"city":"Vouani","country":"Comoros","latitude":-12.1349328,"longitude":44.4252603},
{"city":"Ntoroko","country":"Uganda","latitude":1.0788178,"longitude":30.3896651},
{"city":"Hakui","country":"Japan","latitude":36.9382393,"longitude":136.8170714},
{"city":"Bairan","country":"Philippines","latitude":10.1985612,"longitude":123.7192022},
{"city":"Santa Cruz","country":"Chile","latitude":-34.6324213,"longitude":-71.3592116},
{"city":"Beizi","country":"China","latitude":41.0332954,"longitude":113.1260497},
{"city":"Zhangaqorghan","country":"Kazakhstan","latitude":43.915,"longitude":67.24806},
{"city":"Muḩambal","country":"Syria","latitude":35.78668,"longitude":36.4726},
{"city":"Betong","country":"Thailand","latitude":5.7799851,"longitude":101.0372376},
{"city":"Sypniewo","country":"Poland","latitude":53.0155306,"longitude":21.3375451},
{"city":"Talitsa","country":"Russia","latitude":56.8810476,"longitude":60.0156754},
{"city":"Huddinge","country":"Sweden","latitude":59.2442754,"longitude":18.0084483},
{"city":"Šabac","country":"Serbia","latitude":44.7488612,"longitude":19.6907882},
{"city":"Rosario","country":"Argentina","latitude":-34.5023286,"longitude":-58.6661711},
{"city":"Vale Mourão","country":"Portugal","latitude":38.7638314,"longitude":-9.3180715},
{"city":"Huangtukuang","country":"China","latitude":26.580584,"longitude":110.752493},
{"city":"Skënderbegas","country":"Albania","latitude":40.7746041,"longitude":20.2385432},
{"city":"Ode","country":"Nigeria","latitude":7.65,"longitude":5.55},
{"city":"Ranot","country":"Thailand","latitude":7.7896079,"longitude":100.3048897},
{"city":"Dengnan","country":"China","latitude":40.2214779,"longitude":116.2027916},
{"city":"Staryy Krym","country":"Ukraine","latitude":45.0274234,"longitude":35.0863723},
{"city":"Tân Hưng","country":"Vietnam","latitude":10.8226522,"longitude":105.6647142},
{"city":"Piritiba","country":"Brazil","latitude":-11.7088712,"longitude":-40.5940565},
{"city":"Malabugas","country":"Philippines","latitude":9.3730352,"longitude":122.7631154},
{"city":"Dabat","country":"Ethiopia","latitude":12.9813794,"longitude":37.7622971},
{"city":"Sumber","country":"Indonesia","latitude":-7.9454654,"longitude":113.0845936},
{"city":"Gununglajang","country":"Indonesia","latitude":-6.9465,"longitude":113.8331},
{"city":"Bruxelles","country":"Belgium","latitude":50.7881573,"longitude":4.4180065},
{"city":"Zongzhai","country":"China","latitude":34.746611,"longitude":113.625328},
{"city":"Macia","country":"Mozambique","latitude":-25.0263578,"longitude":33.1070309},
{"city":"Fuming","country":"China","latitude":29.86098,"longitude":121.593092},
{"city":"Invercargill","country":"New Zealand","latitude":-41.1751049,"longitude":174.9385347},
{"city":"Bochum","country":"Germany","latitude":51.449197,"longitude":7.1957779},
{"city":"Sydney","country":"Australia","latitude":-34.0349557,"longitude":151.0998291},
{"city":"Clondalkin","country":"Ireland","latitude":53.3582341,"longitude":-6.4496384},
{"city":"Montpellier","country":"France","latitude":47.3752386,"longitude":-0.8453268},
{"city":"La Joya","country":"Mexico","latitude":19.27898,"longitude":-99.1653351},
{"city":"Zhongben","country":"China","latitude":24.983953,"longitude":101.527027},
{"city":"Manjiang","country":"China","latitude":41.949852,"longitude":127.596645},
{"city":"Orito","country":"Colombia","latitude":0.66643,"longitude":-76.87192},
{"city":"Lille","country":"France","latitude":44.1675867,"longitude":2.0308233},
{"city":"Kletek","country":"Indonesia","latitude":-7.3594399,"longitude":112.6839275},
{"city":"Malbork","country":"Poland","latitude":54.0433255,"longitude":19.0193063},
{"city":"Usukhchay","country":"Russia","latitude":41.4232365,"longitude":47.9193557},
{"city":"Lengkongbarang","country":"Indonesia","latitude":-7.5888579,"longitude":108.2674092},
{"city":"Urkarakh","country":"Russia","latitude":42.1608572,"longitude":47.6332811},
{"city":"Lodwar","country":"Kenya","latitude":3.1155165,"longitude":35.6040785},
{"city":"Marāveh Tappeh","country":"Iran","latitude":37.9022064,"longitude":55.95535},
{"city":"Kaminoyama","country":"Japan","latitude":38.7333101,"longitude":141.5437532},
{"city":"Besançon","country":"France","latitude":47.2981504,"longitude":6.1605131},
{"city":"Vydreno","country":"Russia","latitude":51.463,"longitude":104.6425},
{"city":"Feng’an","country":"China","latitude":23.0981075,"longitude":113.2537007},
{"city":"Fenyan","country":"China","latitude":37.261564,"longitude":111.769893},
{"city":"Pak Phli","country":"Thailand","latitude":14.0899827,"longitude":101.2750531},
{"city":"Kadubera","country":"Indonesia","latitude":-6.4594857,"longitude":105.9141793},
{"city":"Rrasa e Sipërme","country":"Albania","latitude":40.96778,"longitude":19.82111},
{"city":"Peimei","country":"China","latitude":28.628189,"longitude":117.117138},
{"city":"Nazareth","country":"Israel","latitude":32.699635,"longitude":35.303546},
{"city":"Xuanma","country":"China","latitude":31.2144668,"longitude":121.4890556},
{"city":"Krosno","country":"Poland","latitude":49.7722369,"longitude":20.506072},
{"city":"Zharkent","country":"Kazakhstan","latitude":44.166512,"longitude":79.999974},
{"city":"Puck","country":"Poland","latitude":54.7180477,"longitude":18.4086339},
{"city":"Šestajovice","country":"Czech Republic","latitude":50.3411289,"longitude":16.0079822},
{"city":"Rolândia","country":"Brazil","latitude":-23.3105968,"longitude":-51.366412},
{"city":"Omoa","country":"Honduras","latitude":15.7790394,"longitude":-88.0265257},
{"city":"Centre de Flacq","country":"Mauritius","latitude":-20.2029069,"longitude":57.7289398},
{"city":"Hữu Lũng","country":"Vietnam","latitude":21.5659824,"longitude":106.2992912},
{"city":"Lapuan","country":"Philippines","latitude":6.14444,"longitude":125.70083},
{"city":"Homeyo","country":"Indonesia","latitude":-3.7836515,"longitude":136.7865516},
{"city":"Medzhibozh","country":"Ukraine","latitude":49.4389042,"longitude":27.4042153},
{"city":"Penglai","country":"China","latitude":37.810661,"longitude":120.758848},
{"city":"Słubice","country":"Poland","latitude":52.354402,"longitude":14.5610119},
{"city":"Santa Monica","country":"Philippines","latitude":10.0342937,"longitude":126.0415372},
{"city":"Smara","country":"Western Sahara","latitude":26.741856,"longitude":-11.6783671},
{"city":"Simpang","country":"Indonesia","latitude":-1.259553,"longitude":104.100502},
{"city":"Akkol’","country":"Kazakhstan","latitude":51.9956496,"longitude":70.9359277},
{"city":"Sochaux","country":"France","latitude":47.5054315,"longitude":6.8426821},
{"city":"Hukou","country":"China","latitude":29.731101,"longitude":116.251947},
{"city":"Barrancabermeja","country":"Colombia","latitude":6.9130451,"longitude":-73.9712488},
{"city":"Järfälla","country":"Sweden","latitude":59.41522,"longitude":17.7939086},
{"city":"Bambuí","country":"Brazil","latitude":-20.0170955,"longitude":-45.9795138},
{"city":"Libog","country":"Philippines","latitude":13.2409585,"longitude":123.7750159},
{"city":"Rucheng Chengguanzhen","country":"China","latitude":25.549887,"longitude":113.68437},
{"city":"Meilong","country":"China","latitude":31.09913,"longitude":121.407386},
{"city":"Chaiyaphum","country":"Thailand","latitude":13.7387938,"longitude":100.5072582},
{"city":"Welisara","country":"Sri Lanka","latitude":7.0241972,"longitude":79.9020405},
{"city":"Wahawaha","country":"Indonesia","latitude":-8.1654,"longitude":124.5403},
{"city":"Stockholm","country":"Sweden","latitude":59.334679,"longitude":18.0899315},
{"city":"Tangban","country":"China","latitude":23.138433,"longitude":113.351326},
{"city":"Cigadog Hilir","country":"Indonesia","latitude":-7.2194536,"longitude":108.0045002},
{"city":"Tauranga","country":"New Zealand","latitude":-37.6981612,"longitude":176.1595188},
{"city":"Rosario","country":"Philippines","latitude":14.5643857,"longitude":121.1293312},
{"city":"Trakai","country":"Lithuania","latitude":54.6219097,"longitude":24.9344265},
{"city":"Xiaoyi","country":"China","latitude":37.146294,"longitude":111.778818},
{"city":"Gardinovci","country":"Serbia","latitude":45.2051732,"longitude":20.1323619},
{"city":"Kaolinovo","country":"Bulgaria","latitude":43.6165639,"longitude":27.091526},
{"city":"Mönhbulag","country":"Mongolia","latitude":46.75,"longitude":103.51667},
{"city":"Wangji","country":"China","latitude":31.275819,"longitude":121.499653},
{"city":"Labé","country":"Guinea","latitude":11.3232042,"longitude":-12.2891314},
{"city":"Ban Thaen","country":"Thailand","latitude":16.3793702,"longitude":102.3692982},
{"city":"Thủ Thừa","country":"Vietnam","latitude":10.7006857,"longitude":106.3228338},
{"city":"Guisser","country":"Morocco","latitude":32.7668648,"longitude":-7.5057737},
{"city":"Laâyoune / El Aaiún","country":"Western Sahara","latitude":27.1252867,"longitude":-13.1625005},
{"city":"Rozhdestveno","country":"Russia","latitude":54.7288441,"longitude":37.5438564},
{"city":"Chichinales","country":"Argentina","latitude":-38.9126083,"longitude":-67.976045},
{"city":"Dębnica Kaszubska","country":"Poland","latitude":54.3786241,"longitude":17.1607682},
{"city":"Oued Laou","country":"Morocco","latitude":35.4449242,"longitude":-5.0937101},
{"city":"Zelenogradsk","country":"Russia","latitude":54.9562342,"longitude":20.4747022},
{"city":"Jaguariúna","country":"Brazil","latitude":-22.7042272,"longitude":-46.9855088},
{"city":"Konstancin-Jeziorna","country":"Poland","latitude":52.0882644,"longitude":21.1565786},
{"city":"Ollachea","country":"Peru","latitude":-13.7947125,"longitude":-70.4719705},
{"city":"Umunede","country":"Nigeria","latitude":6.2582292,"longitude":6.3066585},
{"city":"Jiaomingsi","country":"China","latitude":30.7833,"longitude":114.41144},
{"city":"Boji","country":"China","latitude":34.363184,"longitude":107.237743},
{"city":"København","country":"Denmark","latitude":55.6720347,"longitude":12.5911341},
{"city":"San Juan de la Maguana","country":"Dominican Republic","latitude":18.8107813,"longitude":-71.2227043},
{"city":"Yonggu","country":"China","latitude":35.72154,"longitude":111.350842},
{"city":"Il’ka","country":"Russia","latitude":51.7195968,"longitude":108.5176433},
{"city":"Wangcheng","country":"China","latitude":28.353912,"longitude":112.833836},
{"city":"Paipu","country":"China","latitude":22.980665,"longitude":116.342934},
{"city":"Shuanglu","country":"China","latitude":30.574474,"longitude":103.923651},
{"city":"Bla","country":"Mali","latitude":12.9549865,"longitude":-5.7563151},
{"city":"Qinglong","country":"China","latitude":40.407578,"longitude":118.949684},
{"city":"Sietesz","country":"Poland","latitude":49.989968,"longitude":22.3314395},
{"city":"Montélimar","country":"France","latitude":44.5590244,"longitude":4.7447501},
{"city":"Zhongxing","country":"China","latitude":30.920219,"longitude":103.620536},
{"city":"Perniö","country":"Finland","latitude":60.2285503,"longitude":23.1228098},
{"city":"Kajan","country":"Albania","latitude":40.9166667,"longitude":19.8833333},
{"city":"Baranoa","country":"Colombia","latitude":10.796589,"longitude":-74.915036},
{"city":"Sevilla","country":"Colombia","latitude":4.2743779,"longitude":-75.931004},
{"city":"Iwata","country":"Japan","latitude":36.9692865,"longitude":136.7851365},
{"city":"Banjaranyar","country":"Indonesia","latitude":-7.0795248,"longitude":109.0869316},
{"city":"Mingjing","country":"China","latitude":31.189496,"longitude":121.42185},
{"city":"Huolongping","country":"China","latitude":29.833396,"longitude":108.731128},
{"city":"Shirochanka","country":"Russia","latitude":46.64968,"longitude":38.39782},
{"city":"Bieto","country":"Indonesia","latitude":-10.28917,"longitude":123.70037},
{"city":"Preston","country":"United Kingdom","latitude":53.763201,"longitude":-2.70309},
{"city":"Sagbayan","country":"Philippines","latitude":9.9137002,"longitude":124.0939065},
{"city":"Funehikimachi-funehiki","country":"Japan","latitude":37.4391941,"longitude":140.5728754},
{"city":"Mitrovicë","country":"Kosovo","latitude":42.8913909,"longitude":20.8659995},
{"city":"Shikhazany","country":"Russia","latitude":55.56047,"longitude":47.39297},
{"city":"Ljungskile","country":"Sweden","latitude":58.222051,"longitude":11.9182903},
{"city":"Novovoronezh","country":"Russia","latitude":51.3531567,"longitude":39.3015305},
{"city":"Megati Kelod","country":"Indonesia","latitude":-8.498277,"longitude":115.0550008},
{"city":"Duas Igrejas","country":"Portugal","latitude":41.4745288,"longitude":-6.3647312},
{"city":"Longtanping","country":"China","latitude":29.674163,"longitude":110.167402},
{"city":"Koncang","country":"Indonesia","latitude":-6.4048381,"longitude":106.0140586},
{"city":"Chornomors’ke","country":"Ukraine","latitude":46.2952236,"longitude":30.6480855},
{"city":"Domsjö","country":"Sweden","latitude":63.2664676,"longitude":18.6285484},
{"city":"Xiejia","country":"China","latitude":44.441584,"longitude":126.4510829},
{"city":"Cotahuasi","country":"Peru","latitude":-15.2122806,"longitude":-72.8901725},
{"city":"Rancagua","country":"Chile","latitude":-34.1701324,"longitude":-70.7406259},
{"city":"Anwen","country":"China","latitude":29.04527,"longitude":120.433275},
{"city":"Várzeas","country":"Portugal","latitude":39.8494257,"longitude":-8.8416426},
{"city":"Vila Nova","country":"Portugal","latitude":41.5993168,"longitude":-8.3776801},
{"city":"Paraguarí","country":"Paraguay","latitude":-25.6262174,"longitude":-57.1520642},
{"city":"Dolna Banya","country":"Bulgaria","latitude":42.3106792,"longitude":23.7647948},
{"city":"Pandean","country":"Indonesia","latitude":-7.6426348,"longitude":112.7032945},
{"city":"Cortiçóis","country":"Portugal","latitude":39.1392555,"longitude":-8.6756761},
{"city":"Solotcha","country":"Russia","latitude":54.789029,"longitude":39.833505},
{"city":"Quxi","country":"China","latitude":31.491169,"longitude":120.31191},
{"city":"Gueltat Zemmour","country":"Morocco","latitude":25.1434095,"longitude":-12.3714463},
{"city":"Kołbiel","country":"Poland","latitude":52.0646474,"longitude":21.4836639},
{"city":"Leles","country":"Indonesia","latitude":-7.1056569,"longitude":107.9005972},
{"city":"Ngetkib","country":"Palau","latitude":7.36451,"longitude":134.51484},
{"city":"Khenifra","country":"Morocco","latitude":32.9340471,"longitude":-5.661571},
{"city":"Caen","country":"France","latitude":49.285973,"longitude":-0.4889547},
{"city":"Wangkung","country":"Indonesia","latitude":-8.2922696,"longitude":120.4415242},
{"city":"Goya","country":"Argentina","latitude":-34.3048508,"longitude":-58.7739249},
{"city":"Guanqing","country":"China","latitude":31.015709,"longitude":117.205832},
{"city":"Trzcińsko Zdrój","country":"Poland","latitude":52.96446,"longitude":14.60461},
{"city":"Doubrava","country":"Czech Republic","latitude":49.8564201,"longitude":18.4660353},
{"city":"Lobos","country":"Argentina","latitude":-34.6234902,"longitude":-58.4955016},
{"city":"Khovd","country":"Mongolia","latitude":47.9795218,"longitude":91.634756},
{"city":"Rybatskoye","country":"Russia","latitude":59.834171,"longitude":30.5188521},
{"city":"Luyang","country":"China","latitude":31.878735,"longitude":117.26467},
{"city":"Shengli","country":"China","latitude":30.2979687,"longitude":120.1561748},
{"city":"Partesh","country":"Kosovo","latitude":42.4008473,"longitude":21.4332317},
{"city":"Nguru","country":"Nigeria","latitude":12.8775114,"longitude":10.4565159},
{"city":"Kanghe","country":"China","latitude":23.774635,"longitude":115.084794},
{"city":"Kuafeu","country":"Indonesia","latitude":-9.9544,"longitude":124.1255},
{"city":"Le Havre","country":"France","latitude":48.0386685,"longitude":-2.9231898},
{"city":"Dukuhbadag","country":"Indonesia","latitude":-7.0240978,"longitude":108.7571263},
{"city":"Rancageneng Satu","country":"Indonesia","latitude":-7.3090733,"longitude":108.1859765},
{"city":"Xicheng","country":"China","latitude":39.912288,"longitude":116.365867},
{"city":"Kamieniec Wrocławski","country":"Poland","latitude":51.0768184,"longitude":17.1762909},
{"city":"Paris 10","country":"France","latitude":43.4945737,"longitude":5.8978018},
{"city":"Seattle","country":"United States","latitude":47.6025001,"longitude":-122.3385759},
{"city":"Palencia","country":"Spain","latitude":42.0096857,"longitude":-4.5288016},
{"city":"Gaptsakh","country":"Russia","latitude":41.6690275,"longitude":48.3784919},
{"city":"Cisitu","country":"Indonesia","latitude":-6.8390238,"longitude":108.059866},
{"city":"Huyang","country":"China","latitude":22.9353419,"longitude":113.6587617},
{"city":"Engenho","country":"Portugal","latitude":41.2681051,"longitude":-8.308171},
{"city":"Hässleholm","country":"Sweden","latitude":56.1629286,"longitude":13.8037716},
{"city":"Solnechnyy","country":"Russia","latitude":51.3842543,"longitude":58.9999439},
{"city":"Tsotsin-Yurt","country":"Russia","latitude":43.2496743,"longitude":45.9860099},
{"city":"Gävle","country":"Sweden","latitude":60.6985859,"longitude":17.112779},
{"city":"Duko","country":"Indonesia","latitude":-6.8775205,"longitude":115.2807951},
{"city":"El Nido","country":"Philippines","latitude":11.160632,"longitude":119.3978597},
{"city":"Zhapu","country":"China","latitude":30.603546,"longitude":121.095594},
{"city":"Paris 11","country":"France","latitude":48.8610504,"longitude":2.3237084},
{"city":"Stockholm","country":"Sweden","latitude":59.3396915,"longitude":18.0576664},
{"city":"Sirinhaém","country":"Brazil","latitude":-8.5914352,"longitude":-35.1186262},
{"city":"Eirol","country":"Portugal","latitude":40.611078,"longitude":-8.5375389},
{"city":"Xiangyanglu","country":"China","latitude":38.2792524,"longitude":111.6631302},
{"city":"Pontes e Lacerda","country":"Brazil","latitude":-15.5804435,"longitude":-59.3800105},
{"city":"Tak Bai","country":"Thailand","latitude":6.2479238,"longitude":102.0032957},
{"city":"Saint-Denis","country":"Reunion","latitude":-20.9304923,"longitude":55.5243352},
{"city":"Pravda","country":"Russia","latitude":46.946681,"longitude":142.0144982},
{"city":"Dimitrovgrad","country":"Bulgaria","latitude":42.1400691,"longitude":25.5719576},
{"city":"Rivas","country":"Nicaragua","latitude":11.4326663,"longitude":-85.8230251},
{"city":"Las Palmas","country":"Mexico","latitude":18.3417854,"longitude":-99.5171206},
{"city":"Velyka Bilozerka","country":"Ukraine","latitude":47.2186081,"longitude":34.6661709},
{"city":"Sibulan","country":"Philippines","latitude":9.338682,"longitude":123.291063},
{"city":"Sathing Phra","country":"Thailand","latitude":7.4561372,"longitude":100.4444367},
{"city":"Pancheng","country":"China","latitude":33.347316,"longitude":120.16366},
{"city":"Gävle","country":"Sweden","latitude":60.6755434,"longitude":17.14035},
{"city":"Bykivka","country":"Ukraine","latitude":50.2923198,"longitude":27.9814782},
{"city":"Pershotravneve","country":"Ukraine","latitude":51.3870782,"longitude":28.8660119},
{"city":"Ilopango","country":"El Salvador","latitude":13.6868163,"longitude":-89.1181849},
{"city":"Synya","country":"Russia","latitude":65.371498,"longitude":58.0235821},
{"city":"Yongning","country":"China","latitude":22.75839,"longitude":108.487368},
{"city":"Praya","country":"Indonesia","latitude":-8.6837074,"longitude":116.2895173},
{"city":"Birendranagar","country":"Nepal","latitude":28.5776106,"longitude":81.6254283},
{"city":"Karlskoga","country":"Sweden","latitude":59.3138173,"longitude":14.4937714},
{"city":"Paihia","country":"New Zealand","latitude":-35.3714074,"longitude":174.0890941},
{"city":"Zürich","country":"Switzerland","latitude":47.3774041,"longitude":8.5113801},
{"city":"Okahandja","country":"Namibia","latitude":-21.9718816,"longitude":16.9063491},
{"city":"Chambéry","country":"France","latitude":45.5641261,"longitude":5.9680907},
{"city":"Tsagaanchuluut","country":"Mongolia","latitude":47.1117538,"longitude":96.6716809},
{"city":"Kafr Baţnā","country":"Syria","latitude":33.5142841,"longitude":36.3741834},
{"city":"Cahors","country":"France","latitude":47.772714,"longitude":-1.813332},
{"city":"Paris 15","country":"France","latitude":48.8466523,"longitude":2.2582125},
{"city":"Gjegjan","country":"Albania","latitude":41.9437159,"longitude":20.006257},
{"city":"Bern","country":"Switzerland","latitude":46.949235,"longitude":7.4439108},
{"city":"Gondang","country":"Indonesia","latitude":-7.4417327,"longitude":111.1056539},
{"city":"Älvsjö","country":"Sweden","latitude":59.2883751,"longitude":18.0250491},
{"city":"Vishnyeva","country":"Belarus","latitude":54.1440921,"longitude":26.2103909},
{"city":"Rogóźno","country":"Poland","latitude":53.5484541,"longitude":18.9455238},
{"city":"Kunri","country":"Pakistan","latitude":25.1629584,"longitude":69.6226406},
{"city":"Mucllo","country":"Peru","latitude":-11.70753,"longitude":-75.022621},
{"city":"Rāmhormoz","country":"Iran","latitude":31.2777088,"longitude":49.5993167},
{"city":"Xiadian","country":"China","latitude":35.621965,"longitude":118.725698},
{"city":"Bitam","country":"Gabon","latitude":2.0779721,"longitude":11.4963935},
{"city":"Osiek","country":"Poland","latitude":53.1595566,"longitude":19.3969614},
{"city":"Abaeté","country":"Brazil","latitude":-19.157438,"longitude":-45.4447859},
{"city":"Čair","country":"Macedonia","latitude":41.9986907,"longitude":21.4874715},
{"city":"Santo Niño","country":"Philippines","latitude":14.3839328,"longitude":121.050126},
{"city":"Mungui","country":"Peru","latitude":-15.1838408,"longitude":-72.9061903},
{"city":"Przywidz","country":"Poland","latitude":54.1949744,"longitude":18.3202769},
{"city":"Sidaohezi","country":"China","latitude":44.692194,"longitude":85.70601},
{"city":"Taoyuan","country":"China","latitude":24.9936281,"longitude":121.3009798},
{"city":"Tanagara","country":"Indonesia","latitude":-6.2683218,"longitude":106.1081103},
{"city":"Dadong’ao","country":"China","latitude":34.480174,"longitude":108.43041},
{"city":"Wukou","country":"China","latitude":29.731101,"longitude":116.251947},
{"city":"Darong","country":"China","latitude":40.076762,"longitude":113.300129},
{"city":"Tepal","country":"Indonesia","latitude":-8.681907,"longitude":117.2440957},
{"city":"Kup","country":"Poland","latitude":50.8062039,"longitude":17.8834957},
{"city":"Sabae","country":"Japan","latitude":35.8515197,"longitude":136.1957329},
{"city":"Kufayrit","country":"Palestinian Territory","latitude":32.4438,"longitude":35.20184},
{"city":"Kurume","country":"Japan","latitude":37.3785618,"longitude":140.3460747},
{"city":"Batugede Kulon","country":"Indonesia","latitude":-6.9662696,"longitude":107.4492746},
{"city":"Garça","country":"Brazil","latitude":-22.2131635,"longitude":-49.6555394},
{"city":"Saint-Rémi","country":"Canada","latitude":45.26678,"longitude":-73.61588},
{"city":"Kutao","country":"China","latitude":36.1460832,"longitude":120.4873619},
{"city":"Kiel","country":"Germany","latitude":54.3418823,"longitude":10.1150681},
{"city":"Itaperuna","country":"Brazil","latitude":-21.1877747,"longitude":-41.8799408},
{"city":"Biancheng","country":"China","latitude":30.793647,"longitude":106.074668},
{"city":"Pilcomay","country":"Peru","latitude":-12.0442537,"longitude":-75.2535192},
{"city":"Barreiro","country":"Portugal","latitude":42.0166709,"longitude":-8.5069713},
{"city":"Suileng","country":"China","latitude":47.236015,"longitude":127.114832},
{"city":"Kruševac","country":"Serbia","latitude":43.5757545,"longitude":21.331051},
{"city":"Brasília","country":"Brazil","latitude":-15.7994139,"longitude":-47.9222179},
{"city":"Aş Şūrah aş Şaghīrah","country":"Syria","latitude":33.03267,"longitude":36.57387},
{"city":"Oguta","country":"Nigeria","latitude":5.7055314,"longitude":6.8083063},
{"city":"Prroshyan","country":"Armenia","latitude":40.2507786,"longitude":44.419895},
{"city":"Hassi Berkane","country":"Morocco","latitude":34.839107,"longitude":-2.8670625},
{"city":"Nashville","country":"United States","latitude":34.9128121,"longitude":-116.6492954},
{"city":"Thị Trấn Thuận Châu","country":"Vietnam","latitude":21.4364892,"longitude":103.6927195},
{"city":"Penamacor","country":"Portugal","latitude":40.1686749,"longitude":-7.1721914},
{"city":"Paseyan","country":"Indonesia","latitude":-6.8713485,"longitude":111.639243},
{"city":"Tanjung Kidul","country":"Indonesia","latitude":-7.4394897,"longitude":109.2251697},
{"city":"Wissembourg","country":"France","latitude":49.031645,"longitude":7.950014},
{"city":"Masebewa","country":"Indonesia","latitude":-8.729881,"longitude":122.0212337},
{"city":"Suwangi Utara","country":"Indonesia","latitude":-2.4421225,"longitude":115.188916},
{"city":"Pereira","country":"Portugal","latitude":41.4884285,"longitude":-8.6299298},
{"city":"Iizuka","country":"Japan","latitude":33.6883392,"longitude":130.7171244},
{"city":"Sollefteå","country":"Sweden","latitude":63.1709533,"longitude":17.2596201},
{"city":"San Diego","country":"United States","latitude":32.903454,"longitude":-117.2195678},
{"city":"Tiko","country":"Cameroon","latitude":4.0786306,"longitude":9.358984},
{"city":"Mingelchaur","country":"Azerbaijan","latitude":40.7702563,"longitude":47.0496015},
{"city":"Cartagena","country":"Colombia","latitude":10.9819737,"longitude":-74.9438915},
{"city":"Lipie","country":"Poland","latitude":51.014655,"longitude":18.8071072},
{"city":"Namp’o","country":"North Korea","latitude":38.7522606,"longitude":125.3246769},
{"city":"Orenburg","country":"Russia","latitude":51.768362,"longitude":55.11302},
{"city":"Kleszczewo","country":"Poland","latitude":52.32659,"longitude":17.1790537},
{"city":"Lukou","country":"China","latitude":31.7338222,"longitude":118.8719394},
{"city":"Acarí","country":"Peru","latitude":-15.4384565,"longitude":-74.6180833},
{"city":"Sauri","country":"Nigeria","latitude":11.7323018,"longitude":6.792905},
{"city":"Catungawan Sur","country":"Philippines","latitude":9.7817,"longitude":124.4693},
{"city":"Semeljci","country":"Croatia","latitude":45.3613644,"longitude":18.5422141},
{"city":"Quinchía","country":"Colombia","latitude":5.341352,"longitude":-75.730957},
{"city":"Poxin","country":"China","latitude":21.630384,"longitude":111.000373},
{"city":"Ilandža","country":"Serbia","latitude":45.1761098,"longitude":20.9132879},
{"city":"Pengilon","country":"Indonesia","latitude":-7.3063645,"longitude":110.1209019},
{"city":"Adani","country":"Nigeria","latitude":6.7367367,"longitude":7.0014657},
{"city":"Tegalloa","country":"Indonesia","latitude":-7.2510084,"longitude":106.9600711},
{"city":"Pappadátes","country":"Greece","latitude":39.3134407,"longitude":20.7929638},
{"city":"Shijing","country":"China","latitude":24.625561,"longitude":118.431541},
{"city":"Jindong","country":"China","latitude":29.099294,"longitude":119.692696},
{"city":"Ciudad Darío","country":"Nicaragua","latitude":12.734087,"longitude":-86.1217424},
{"city":"Krajan Dua Putukrejo","country":"Indonesia","latitude":-8.2319193,"longitude":112.4408057},
{"city":"Aparecida","country":"Brazil","latitude":-22.8456877,"longitude":-45.2302005},
{"city":"Augustów","country":"Poland","latitude":51.341066,"longitude":21.063409},
{"city":"Babakansalam","country":"Indonesia","latitude":-7.419676,"longitude":107.66086},
{"city":"Tancheng","country":"China","latitude":34.613586,"longitude":118.367215},
{"city":"Hitoyoshi","country":"Japan","latitude":32.1911268,"longitude":130.785523},
{"city":"Varāmīn","country":"Iran","latitude":35.3252407,"longitude":51.6471987},
{"city":"Marki","country":"Poland","latitude":52.0267944,"longitude":20.9513034},
{"city":"Trenggulunan","country":"Indonesia","latitude":-6.7212228,"longitude":111.5140386},
{"city":"Valenciennes","country":"France","latitude":50.334011,"longitude":3.460955},
{"city":"Florida","country":"Honduras","latitude":15.026492,"longitude":-88.8383036},
{"city":"Sukumo","country":"Japan","latitude":32.9287227,"longitude":132.7122629},
{"city":"Tilmi","country":"Morocco","latitude":32.1775145,"longitude":-5.4784365},
{"city":"Jianfeng","country":"China","latitude":26.5368826,"longitude":99.5823095},
{"city":"Pai do Vento","country":"Portugal","latitude":38.7146303,"longitude":-9.414533},
{"city":"Anjozorobe","country":"Madagascar","latitude":-18.4001194,"longitude":47.8699039},
{"city":"Tyresö","country":"Sweden","latitude":59.2243365,"longitude":18.2620496},
{"city":"Songhe","country":"China","latitude":31.3106446,"longitude":120.6256806},
{"city":"Ankazobe","country":"Madagascar","latitude":-18.3181877,"longitude":47.1118527},
{"city":"Huaping","country":"China","latitude":26.629211,"longitude":101.266195},
{"city":"Lantian","country":"China","latitude":34.151624,"longitude":109.323479},
{"city":"Paipa","country":"Colombia","latitude":5.77977,"longitude":-73.114725},
{"city":"Aulnay-sous-Bois","country":"France","latitude":48.9318625,"longitude":2.4943891},
{"city":"Carcavelos","country":"Portugal","latitude":38.682014,"longitude":-9.3291367},
{"city":"Senj","country":"Croatia","latitude":44.9893604,"longitude":14.9036052},
{"city":"Nyurba","country":"Russia","latitude":63.2803099,"longitude":118.3618985},
{"city":"Kazaure","country":"Nigeria","latitude":12.6532933,"longitude":8.4120775},
{"city":"Xiaolong","country":"China","latitude":31.221062,"longitude":121.436555},
{"city":"Ning’er","country":"China","latitude":23.061749,"longitude":101.045317},
{"city":"Kapasan","country":"Indonesia","latitude":-7.2425008,"longitude":112.7524553},
{"city":"Cikembang","country":"Indonesia","latitude":-6.8497345,"longitude":106.8738909},
{"city":"Kombissiri","country":"Burkina Faso","latitude":12.074325,"longitude":-1.3421032},
{"city":"Magsaysay","country":"Philippines","latitude":14.6031411,"longitude":121.0959448},
{"city":"Purwojoyo","country":"Indonesia","latitude":3.5262275,"longitude":98.5708754},
{"city":"Bella Vista","country":"Dominican Republic","latitude":18.4530602,"longitude":-69.9474964},
{"city":"Barreiros","country":"Brazil","latitude":-8.8325814,"longitude":-35.2807624},
{"city":"Namīn","country":"Iran","latitude":38.4244545,"longitude":48.4782419},
{"city":"Driyorejo","country":"Indonesia","latitude":-7.3445521,"longitude":112.6079459},
{"city":"Millerovo","country":"Russia","latitude":48.9292043,"longitude":40.3719341},
{"city":"Niaojin","country":"China","latitude":39.3433574,"longitude":117.3616476},
{"city":"Ouricuri","country":"Brazil","latitude":-7.8808775,"longitude":-40.0810267},
{"city":"Hrob","country":"Czech Republic","latitude":50.6576392,"longitude":13.7140673},
{"city":"Cedar Rapids","country":"United States","latitude":41.9906493,"longitude":-91.7490143},
{"city":"Belz","country":"Ukraine","latitude":50.3815209,"longitude":24.0089352},
{"city":"Nakhon Ratchasima","country":"Thailand","latitude":14.6316265,"longitude":102.7594847},
{"city":"Emiliano Zapata","country":"Mexico","latitude":18.0711639,"longitude":-93.1616515},
{"city":"Bonebone","country":"Indonesia","latitude":-2.615848,"longitude":120.521698},
{"city":"Norashen","country":"Armenia","latitude":40.6573682,"longitude":44.0769342},
{"city":"Kuty","country":"Ukraine","latitude":48.2629668,"longitude":25.1738286},
{"city":"Fushan","country":"China","latitude":23.021478,"longitude":113.121435},
{"city":"Pomar","country":"Portugal","latitude":42.046011,"longitude":-8.4825685},
{"city":"Bislig","country":"Philippines","latitude":8.1890712,"longitude":126.3547613},
{"city":"Alavieska","country":"Finland","latitude":64.1629791,"longitude":24.3067885},
{"city":"Landskrona","country":"Sweden","latitude":55.9118986,"longitude":12.8316075},
{"city":"Bhawāna","country":"Pakistan","latitude":31.5589333,"longitude":72.6673502},
{"city":"Dubovka","country":"Russia","latitude":50.8563,"longitude":46.0287999},
{"city":"Ormož","country":"Slovenia","latitude":46.4086282,"longitude":16.1508154},
{"city":"Rokietnica","country":"Poland","latitude":52.5094874,"longitude":16.7474972},
{"city":"Santa Isabel","country":"Brazil","latitude":-15.2192781,"longitude":-49.4059435},
{"city":"Rouen","country":"France","latitude":49.4378273,"longitude":1.0974675},
{"city":"Makurdi","country":"Nigeria","latitude":7.7321516,"longitude":8.539144},
{"city":"Tutup","country":"Indonesia","latitude":-6.9789789,"longitude":111.3888358},
{"city":"Río Colorado","country":"Argentina","latitude":-34.6146409,"longitude":-58.5056396},
{"city":"Cahul","country":"Moldova","latitude":47.7820865,"longitude":27.930686},
{"city":"Nanjia","country":"China","latitude":35.810038,"longitude":111.379101}]