city,country,latitude,longitude
Kájov,Czech Republic, 48.8117849,14.2626645
Neiba,Dominican Republic,18.9351075,-70.405585
Wierzchowo,Poland,53.46,16.101111
Olival,Portugal,39.7075592,-8.6041746
Būlaevo,Kazakhstan,54.9066121,70.4574593
Dongjingcheng,China,44.026332,125.88298
Penisihan,Indonesia,-7.5882979,109.1553021
Puerto Quijarro,Bolivia,-17.80257,-57.776161
Castanhal,Brazil,-1.3050431,-47.9340343
Tuodian,China,24.210761,102.61616
Mont-Royal,Canada,45.5080397,-73.564543
Belén Gualcho,Honduras,14.4801593,-88.7908717
Al Maţarīyah,Egypt,30.1253988,31.3181252
Póvoa,Portugal,40.3972809,-8.2549322
Schengen,Luxembourg,49.4709886,6.3640878
Kiyevskoye,Russia,43.7071168,44.643763
Luoxi,China,23.043061,113.298675
Qincheng,China,40.232604,116.410742
Thala,Tunisia,35.5732078,8.6683097
Masantol,Philippines,14.880403,120.7063932
Ystad,Sweden,55.4312324,13.8557599
Viligili,Maldives,0.7573413,73.434227
Pluak Daeng,Thailand,12.9707642,101.2163774
Port Moody,Canada,49.2849107,-122.8677562
Jambean,Indonesia,-7.9299269,111.9671537
Shadili,China,30.174004,122.039055
Porto de Mós,Portugal,39.6022749,-8.8165669
Blon’,Belarus,53.5324492,28.187043
Tonggakjati,Indonesia,-6.2404416,107.281417
Mogi Guaçu,Brazil,-22.363303,-46.9343777
Cijambe,Indonesia,-6.6242048,107.775465
Cascavel,Brazil,-24.9288708,-53.4392535
Sedayu,Indonesia,-7.832843,110.2474787
Langgapayung,Indonesia,1.6699249,99.9688636
Stari Grad,Croatia,43.1839958,16.5992505
Tamel,Portugal,41.551649,-8.5906434
Huili Chengguanzhen,China,26.662155,102.242653
Łyse,Poland,53.4049709,21.5480129
Al Ḩawāmidīyah,Egypt,29.9,31.25
Wuluhan,Indonesia,-8.3654775,113.5371368
Longcheng,China,41.576749,120.413376
Shanshi,China,37.2425649,111.8568586
La Soledad,Mexico,19.7267712,-101.1850967
Port-Gentil,Gabon,-0.7351026,8.7591311
Citeureup,Indonesia,-6.4933318,106.8809319
Kansas City,United States,39.0345609,-94.5521274
Aberdeen,United Kingdom,56.968436,-2.2508745
Putukrejo,Indonesia,-7.6375159,111.9298922
Genève,Switzerland,46.2214936,6.1238396
Saharna,Moldova,47.6949791,28.9654659
Jayawangi,Indonesia,-6.8333257,106.6971352
Ishikawa,Japan,37.6703123,140.6062909
Amherst,Canada,45.8299686,-64.2092372
Alegrete,Brazil,-29.7844393,-55.7980283
Damasak,Nigeria,13.0996105,12.5113296
Palcamayo,Peru,-11.2957096,-75.7727595
San Marcos,Honduras,14.4103464,-88.9521595
Harstad,Norway,68.787629,16.5529921
Miastko,Poland,53.9858812,16.9811758
Ambohitrolomahitsy,Madagascar,-18.7,47.683333
Semypolky,Ukraine,50.7249071,30.9358078
Neryungri,Russia,56.9115826,124.9032167
Dadong’ao,China,34.480174,108.43041
Beiyang,China,23.028301,115.84573
Jengglungharjo,Indonesia,-8.2840556,111.910516
Bardo,Poland,50.50505,16.74043
Malibong East,Philippines,14.8561068,120.9396927
Dalian,China,38.914003,121.614682
Tanxi,China,29.696108,118.315329
Los Tangos,Honduras,15.1398293,-88.6714295
Jiangna,China,22.781631,108.273158
Harjamukti,Indonesia,-6.7533085,108.5522531
Bankim,Cameroon,6.0849674,11.4878714
Barong,Philippines,18.1166668,120.6999969
Bangbayang,Indonesia,-6.8734228,107.074614
Colombia,Cuba,20.9874938,-77.4185584
Trinidad,Cuba,21.7960343,-79.9808143
Urus-Martan,Russia,43.1298714,45.5357156
Bairros,Portugal,41.3427327,-8.5959297
Qarqaraly,Kazakhstan,49.4129509,75.4772753
Chornukhyne,Ukraine,48.3238703,38.5208692
Shchelkovo,Russia,55.9240189,38.0011402
Zhouyuan,China,37.355469,120.434071
Bouabout,Morocco,31.26886,-9.183608
Shen’ao,China,27.85512,120.6604815
Tawa,China,37.507694,101.414709
Černovice,Czech Republic,49.1744199,16.6394119
Haifa,Israel,32.7940463,34.989571
Lisiy Nos,Russia,60.0128251,30.0046156
Mugango,Tanzania,-1.68333,33.7
Zhinvali,Georgia,42.1102695,44.7710122
Lewodoli,Indonesia,-8.3488,123.6542
Genisséa,Greece,41.0610542,24.9613827
Oslo,Norway,59.9546982,10.7105679
Ostrožská Lhota,Czech Republic,48.9763601,17.4746428
København,Denmark,55.6649287,12.5504728
Kampong Chhnang,Cambodia,12.1392352,104.5655273
Dallas,United States,32.765421,-96.7413706
Ludvika,Sweden,60.1387829,14.3822323
Seattle,United States,47.4494702,-122.307217
Zhendong,China,34.137139,120.227624
Arcachon,France,44.6603148,-1.1648341
Dalongzhan,China,29.201587,111.755127
Kunwi,South Korea,36.23472,128.57278
Krasnyy Oktyabr’,Russia,55.830186,37.4457899
Gangkoujie,China,29.724842,115.788192
Xishanzui,China,40.634244,108.893327
Guayatá,Colombia,4.968157,-73.490098
Aţ Ţīrah,Palestinian Territory,31.87022,35.12682
Cisalakdesa,Indonesia,-6.7686246,107.7517775
Toledo,United States,41.6615259,-83.6861485
Burrel,Albania,41.6089452,20.006257
Seaton,United Kingdom,52.574095,-0.672296
Tullyallen,Ireland,53.7369009,-6.4241156
Cieurih Satu,Indonesia,-6.9667234,108.6699011
Da’an,China,45.506995,124.292626
Jincheng,China,35.490701,112.851831
Bianba,China,30.933652,94.7078
Butiá,Brazil,-30.1180899,-51.9615457
Jinqiao,China,31.266133,121.611248
Villa Ángela,Argentina,-27.582369,-60.713149
Margen,Philippines,11.0181098,124.5298181
Itapuí,Brazil,-22.2275469,-48.7379527
Padangpanjang,Indonesia,-0.4660955,100.3984148
Fuyo,South Korea,44.9857216,126.0278163
Nässjö,Sweden,57.7272213,14.7410285
Bila,Bosnia and Herzegovina,43.7764262,16.9261199
Borne Sulinowo,Poland,53.5760481,16.5355185
Shuiting,China,26.5807374,106.7152864
Desakolot,Indonesia,-7.2536471,107.8954131
Sísion,Greece,35.3085456,25.5207204
Xianchiyu,China,29.46392,110.4714
Pakusari,Indonesia,-8.1677158,113.7751826
Bodø,Norway,67.2929841,14.587686
Baisha,China,26.641315,100.222545
Seremban,Malaysia,2.7239834,101.9476452
Jingping,China,23.365556,116.70345
Libertad,Mexico,19.4779768,-99.1771001
Kinnegad,Ireland,53.806868,-9.1327273
Pontarlier,France,46.907884,6.3333882
Łodygowice,Poland,49.7289952,19.1538281
Fengshan,China,24.546876,107.04219
Candelária,Brazil,-29.7132471,-52.8312661
Linamon,Philippines,8.1818348,124.147545
Lakshmīpur,Bangladesh,23.3567159,90.7942665
Beixiaoying,China,40.199887,116.728714
Novyy Urgal,Russia,51.0722125,132.6007578
Kradinan,Indonesia,-7.7995142,111.5438491
Baikouquan,China,45.895779,85.349613
Hrvace,Croatia,43.7563619,16.6204644
Reisjärvi,Finland,63.6045211,24.9388982
Maastricht,Netherlands,50.8493216,5.7114171
Al Fandaqūmīyah,Palestinian Territory,32.3206,35.20329
Balrothery,Ireland,53.5879156,-6.1884248
Karangbaru,Indonesia,4.3378413,98.0717968
Cerenti,Indonesia,-0.4960508,101.866362
Ngrayun,Indonesia,-8.0888877,111.4514369
Tetandara,Indonesia,-8.8795811,121.656829
Naudero,Pakistan,27.7537155,68.4470397
Babakanbandung,Indonesia,-6.205673,106.3081194
Dalubian,China,25.526986,112.615815
Yiyang,China,28.55386,112.35518
Shabqadar,Pakistan,34.2211097,71.6276159
Châtellerault,France,46.8179207,0.5465548
Kalkal Barat,Indonesia,-6.9965,112.8193
Hengdaohezi,China,44.043297,129.359811
Dranoc,Kosovo,50.6573133,14.7389618
Pangguang,China,31.3657303,121.3729026
Jedlina-Zdrój,Poland,50.71966,16.345569
Kotel,Bulgaria,42.8867657,26.44965
Kudang,Indonesia,-7.0345626,107.9836107
Le Perreux-sur-Marne,France,48.8348801,2.5070548
Kuaidamao,China,41.676243,125.769983
Haugesund,Norway,59.412262,5.2978064
Ziroudani,Comoros,-12.3325,43.7775
Ţawr al Bāḩah,Yemen,13.18179,44.29966
La Colorada,Panama,8.0076463,-80.9815817
Ngromo,Indonesia,-7.9531596,111207
Caucaguita,Venezuela,10.4868673,-66.739712
Jiangtian,China,43.635681,125.5851039
Rimbo,Sweden,59.7394596,18.3595793
Niort,France,46.1839042,-0.4738335
Habingkloang,Indonesia,-8.6981,122247
Spas,Ukraine,48.4474111,25.0435007
Grekan,Albania,40.9279942,19.9481973
Berlin,Germany,52.5170826,13.3236611
Linjiang,China,41.811979,126.918087
Pobé,Benin,6.9832415,2.6636066
Fangshan,China,39.749144,116.143267
Ornontowice,Poland,50.1934213,18.7546431
Datuan,China,37.11671,122.307942
Karangturi,Indonesia,-6.9895044,110.4329118
Longfeng,China,46.562247,125.1353261
Kourou,French Guiana,5.1677581,-52.6449937
Sabaneta,Dominican Republic,18.8104433,-71.2236939
Nürnberg,Germany,49.4904742,11.0986834
Fasito‘outa,Samoa,-13.8117019,-171.940524
Itabaianinha,Brazil,-11.2750411,-37.7879303
Liborina,Colombia,6.67745,-75.811744
Naga,Philippines,14.6592829,121.0483527
Ash Shaḩānīyah,Qatar,25.4106386,51.1846025
Hualin,China,44.691336,129.696957
Sundbyberg,Sweden,59.3586958,17.9687559
La Seyne-sur-Mer,France,43.1147983,5.8567016
Manjiang,China,41.949852,127.596645
Janakpur,Nepal,26.7271466,85.9406745
Villa Concepción del Tío,Argentina,-31.3224313,-62.813111
Charlotte,United States,35.3328119,-80.817935
Port-de-Paix,Haiti,19.9348887,-72.8308692
Barrosas,Portugal,41.3395549,-8.2519171
Viljakkala,Finland,61.7016711,23.2638837
Sychëvo,Russia,55.9576019,36.2249059
Xinmin,China,41.985186,122.836723
Independencia,Mexico,19.3803931,-99.1476908
Mawlamyine,Myanmar,16.4543173,97.6439611
Minante Segundo,Philippines,16.9022,121.76191
Codoi,China,30.466314,92.55497
Vista Hermosa,Panama,8.9990207,-79.5217021
Yeniköy,Turkey,38.408587,28.385948
Tete,Mozambique,-16.1328104,33.6063855
Pereslavl’-Zalesskiy,Russia,56.7391033,38.8533938
La Victoria,Mexico,23.7369164,-99.1411154
Sosnovka,Russia,54.1347287,33.2921685
Darvi,Mongolia,46.4695205,94.0976021
Evansville,United States,38.03,-87.58
Bao’an,China,22.555259,113.884019
Shilovo,Russia,54.3266413,40.8909987
Marbel,Philippines,7.1756111,124.9231052
Huoxian,China,35.429135,104.030413
Huze,China,27.859517,114.758301
Shaliangzi,China,37.910325,93.341907
San Simon,Philippines,14.9973644,120.7777605
Guandukou,China,31.052914,110.332814
Kampunganyar,Indonesia,-8.1714502,114.2806558
Zhangaqorghan,Kazakhstan,43915,67.24806
Sysert’,Russia,56.5023602,60.8150629
Leer,South Sudan,8.296968,30.1531568
Sanmiaoqian,China,28.976995,116.762907
Antony,France,48.8753655,2.3405004
Nacka,Sweden,59.3104563,18.0995725
Nagarakembang,Indonesia,-7.0453161,108.3311815
Ciudad Vieja,Guatemala,14.52309,-90.764589
Ciroyom,Indonesia,-6.9149429,107.5890217
Ar Rawḑah,Syria,33.5210036,36.2861306
Pak Chom,Thailand,18.0226967,101.8812323
Yuefeng,China,30.628795,104.0436982
Mungwi,Zambia,-10.1683268,31.3484448
Henggouqiao,China,29.932442,114.36947
Kananga,Democratic Republic of the Congo,-5.897522,22.4172256
Pendiqing,China,39.94191,112.00383
Casal Galego,Portugal,39.7541856,-8.9232253
Sainyabuli,Laos,19.1945799,101.483498
Maracanaú,Brazil,-3.879263,-38.612338
Tarbes,France,50.4734865,2.9394741
Krasnogvardeyets,Russia,57.9258984,59.970317
Saint-Brieuc,France,48.5116663,-2.7393345
Koani Ndogo,Tanzania,-6.13333,39.28333
Ciguha Tengah,Indonesia,-7.04383,106.82849
Fort Smith,United States,35.3756077,-94.4313928
Velille,Peru,-14.51688,-71.88636
Guaçuí,Brazil,-20.7784132,-41.6847632
Santander de Quilichao,Colombia,3.01228,-76.484533
Rancabelut,Indonesia,-6.8686728,107.516493
Osogbo,Nigeria,7.7826709,4.5418141
Oebobo,Indonesia,-10.1701129,123.6231723
Novoshakhtinskiy,Russia,47.7557543,39.9363328
Mueang Nonthaburi,Thailand,13.9210992,100.5219418
Krasiczyn,Poland,49.7762204,22.6525426
Pomacocha,Peru,-14.0845123,-73.5903296
Chunghwa,North Korea,38.8605311,125.7898106
Loma Bonita,Mexico,18.1096868,-95.8803869
Xinxu,China,22.863502,114.333767
Đống Đa,Vietnam,21.0180725,105.8299495
Oyan,Nigeria,8.0462732,4.7639811
Ringinagung,Indonesia,-7.6645385,111.3158022
Hernández,Argentina,-32.9589969,-68.8502434
Rantauambacang,Indonesia,-1.3793386,101.9062829
Wirodayan,Indonesia,-8.2133,114.3701
Port Washington,United States,40.8395426,-73.7023905
Niamtougou,Togo,9.7437515,1.1161166
Jelcz,Poland,50.4465359,19.894509
Kaberamaido,Uganda,1.7642785,33.1506163
Mangochi,Malawi,-14.4861733,35.253304
Kampungmasjid,Indonesia,-6.490877,106.7952511
Xianrendu,China,32.253408,111.728218
Zhob,Pakistan,31.6532755,69.4038491
Borås,Sweden,57.7313899,12.9130426
Bayramaly,Turkmenistan,37.6156855,62.1571349
Tujing,China,25.489999,103.796167
Broshniv-Osada,Ukraine,48.9942371,24.1867294
Xilanqi,China,40.174881,123.52481
Jadi,Indonesia,-6.9528113,111.9880199
Lunik,Albania,41.2870015,20.321945
Kamphaeng Phet,Thailand,16.4739491,99.5096031
San José de Mayo,Uruguay,-34.3486042,-56.7075141
Bordeaux,France,45.697904,0.964671
Kebunkelapa,Indonesia,3.8788254,98.478759
Mehar,Pakistan,27.1668637,67.8288595
Verkhniy Landekh,Russia,56.8408003,42.5992867
Turi,Indonesia,1.1963019,104.1019324
Kangshan,China,39.630867,118.180193
Zyablikovo,Russia,55.619557,37.754824
Jōetsu,Japan,37.0909826,138.1698009
Labuhanlalar,Indonesia,-8.8071005,116.8174054
Bazhu,China,28.9456318,111.7021355
Yaita,Japan,36.8079089,139.9200321
Sumpur Kudus,Indonesia,-0.4050276,100.9354944
Washington,United States,38.9080786,-77.0406147
Tarxien,Malta,35.8659607,14.5139265
Eldoret,Kenya,0.5142775,35.2697802
Bundibugyo,Uganda,0.707531,30.0636349
Mitú,Colombia,1.256633,-70.2359058
Sychëvo,Russia,55.9576019,36.2249059
Phu Loc,Vietnam,16.2725431,107.9394761
Huaidao,China,38.677426,112.253935
Limón,Costa Rica,9.93689,-83.00685
El Calafate,Argentina,-51.6415071,-69.2304627
Pefkochóri,Greece,39.9880319,23.6140148
Cipari,Indonesia,-7.4066528,108.7719766
Estância Velha,Brazil,-29.6540396,-51.1848488
Widuchowa,Poland,53.1395216,14.4504726
Montreuil,France,48.8505771,2.4273906
Curry,Philippines,11.7744786,124.8827037
Lianzhu,China,28.607879,119.435806
Amnat Charoen,Thailand,12.0554892,99.855247
Huanglong,China,32.748741,103.82319
Na Chueak,Thailand,15.7734482,103.0472164
Horred,Sweden,57.3550131,12.4765885
Hermoso Campo,Argentina,-31.0767358,-64.4833187
Akwanga,Nigeria,8.9066616,8.4074573
Kalpin,China,40.508339,79.047291
Patenongan,Indonesia,-7.0009,113.8811
Lincheng,China,37.444498,114.498761
Ping’an,China,31.2221,121.457658
Baraya,Colombia,3.1852692,-74.9208772
Pirapora,Brazil,-17.3410721,-44.9449465
Tigbaw,Philippines,11.1179302,123.0099723
Bauang,Philippines,14.7299584,121.050452
Dongdong,China,23.3790333,113.7632828
Giawang,Philippines,9.7922,124509
Varge Mondar,Portugal,38.7554084,-9.3408903
Stanisław Górny,Poland,49.8922979,19.621588
General Roca,Argentina,-34.5331768,-58.4950475
Bekwai,Ghana,6.4532257,-1.5838477
Saintes,France,43.3423246,1.2606792
Jakubów,Poland,52.2309398,21.6932492
Creil,France,49.243003,2.510652
Oslo,Norway,59.8913759,10.680635
Tashkent,Uzbekistan,41.2994958,69.2400734
Barang,Indonesia,-8.2202049,111.4708135
Puchong,Malaysia,3.0015321,101.6184908
Nanping,China,26.641774,118.17771
Zeerust,South Africa,-25.5468699,26.07191
Krajan,Indonesia,-7.5450262,111.6556388
Changzhi,China,36.195409,113.116404
At Tawāhī,Yemen,12.7871909,44.9836775
Miranda,Colombia,3.251528,-76.229027
Mach,Pakistan,29.8677682,67.3202088
Cache Creek,Canada,50.81011,-121.3246
Karanganyarkrajan,Indonesia,-6.8243672,110.7880536
Myślenice,Poland,49.83347,19.93965
Xinqiao,China,31.058765,121.315718
Nālūt,Libya,31.8742348,10.9750484
Malino,Philippines,14.295795,120.9905117
Pocsi,Peru,-16.5043107,-71.3616546
Jankowice,Poland,50.0026509,18.9881936
Ust’-Koksa,Russia,50.270819,85.613152
Sartrouville,France,48.9378251,2.1570562
Zielonki,Poland,50.133176,19.9262381
Kota Bharu,Malaysia,6.1097207,102.2462087
Huanghai,China,40.0792114,124.3337947
Varennes,Canada,45.6834469,-73.4248393
Shangyi,China,41.076226,113.969618
Lons-le-Saunier,France,46.6693059,5.5466073
Mmathubudukwane,Botswana,-24.6,26.43
Nivnice,Czech Republic,48.9746444,17.6475832
Bitica,Equatorial Guinea,1.4243635,9.6216084
Karangharjo,Indonesia,-6.7050629,111.6198661
Selaparang Timur,Indonesia,-8.5738445,116.1093533
Youhua,China,39.948572,116.420192
Lappi,Finland,61.9676727,26.3974095
Muang Sam Sip,Thailand,15.5106977,104.7264617
Tandag,Philippines,9.090009,126.162783
Tembisa,South Africa,-25.99566,28.1971031
Zhangtan,China,29.963494,118.331054
Tonglin,China,30.945515,117.81154
Kwekwe,Zimbabwe,-18.9201331,29.8236554
Kayar,Senegal,14.9165428,-17.1203909
Byala,Bulgaria,42.8494142,27.7900409
Kanlagay,Philippines,5.87568,121.29146
Pilluana,Peru,-6.7764491,-76.2899071
Bueng Samakkhi,Thailand,16.167313,99.950724
Gap,France,48.8588363,2.3477753
Pontevedra,Spain,42.4385891,-8.5995773
Kalate,Indonesia,-8.5693726,118.6557911
Hrazdan,Armenia,40.5353559,44.7695698
Chust Shahri,Uzbekistan,41.005341,71.236153
Acobamba,Peru,-12.8435129,-74.569682
Lukovica pri Domžalah,Slovenia,46.1696293,14.6907259
Odiongan,Philippines,12.405227,121.990643
Nauchnyy Gorodok,Russia,53.4167481,83.5264334
Parakou,Benin,9.3466822,2.6090043
Lubichowo,Poland,53.8514527,18.3991666
Livádion,Greece,37.1426639,24.5137742
Qianxu Zhen,China,30.7765271,121.247793
Shelabolikha,Russia,53.4066765,82.6293575
Bol,Chad,13.470554,14.707735
Aurora,Philippines,14.5458392,121.0044883
Sundsvall,Sweden,62.3946271,17.2842162
Zeist,Netherlands,52.066952,5.2407431
Jiangtian,China,43.635681,125.5851039
Konggar,China,29.29389,90.98708
Dikirnis,Egypt,31.060387,31.6511258
Rafaḩ,Egypt,31.2802667,34.2401914
Guozhen,China,34.351432,107.387303
Sumbersarikrajan,Indonesia,-8.0650276,113.8011498
Ambarita,Indonesia,2.6715181,98.8087151
Luz de Tavira,Portugal,37.0914183,-7.7047624
Tongzha,China,31.487889,118.136378
Regueiro,Portugal,42.0938285,-8.2570282
Satita,Syria,34.8190348,36.1192307
Diez de Octubre,Cuba,23.0962864,-82.3614632
Kalodzishchy,Belarus,53944,27.7823
Bugene,Tanzania,-1.5923262,31.1419058
Nuevo Berlín,Uruguay,-32.9809545,-58.0470008
Moriki,Nigeria,12.8776754,6.4903141
Panenggoede,Indonesia,-9.6701,119.0511
Beitai,China,21.481291,109.120161
La Roxas,Philippines,14.6103278,121.0080574
Brodnica,Poland,52.138523,16.8924785
Ciudad Choluteca,Honduras,13.3198572,-87.1622344
Živinice,Bosnia and Herzegovina,44.4466286,18.6510559
Miaotou,China,40.657978,109.840313
Stockholm,Sweden,59.3354247,18.067173
Pemzashen,Armenia,40.5854016,43.9362677
La Cueva,Bolivia,-20.4557393,-63.5186518
Pang,Philippines,14.3870657,120.9396932
Xiaheqing,China,39.553172,98.981746
Tanahedang,Indonesia,-8.5534,122.9028
Russkaya Polyana,Russia,53.778695,73.8784471
Ḩajjah,Palestinian Territory,32.20427,35.13077
Municipio de Copacabana,Colombia,6.323976,-75.4985521
Maanĭt,Mongolia,45.8309803,94.80205
Conde,Portugal,41.3922962,-8.3323796
Otaru,Japan,32.9267098,130.845304
Yuanda,China,41.8136349,123.5288621
Itapemirim,Brazil,-20.9829904,-40.9990597
Hamhŭng,North Korea,39.9838002,127.6124552
Roanoke,United States,42.4681713,-83.1589716
Wleń,Poland,51.0176058,15.677587
Lakha Nëvre,Russia,43.6237019,45.3376515
Valerianovsk,Russia,58.760833,59.5550001
Muang Sing,Laos,21.1881873,101.1504111
Panoongan,Indonesia,-7.3251485,108.3607464
Vahdat,Tajikistan,38.560256,69.0165511
Kobleve,Ukraine,46.6274254,31.1947408
Maricá,Brazil,-22.9192526,-42.8163587
Ungheni,Moldova,47.2262024,27.7917874
Ban Talat Yai,Thailand,7.9122744,98.3459726
Rzhev,Russia,56.2621893,34.3028279
Nikinci,Serbia,44.8237819,19.8828847
Saint Paul,United States,44.9688472,-93.1315648
Puszczykowo,Poland,52.2828507,16.8550365
Korsze,Poland,54.16967,21.13909
Tumpukrenteng,Indonesia,-8.128563,112.6943559
Gampola,Sri Lanka,7.145296,80.568823
Jiangluo,China,33.888816,105.82972
La Roche-sur-Yon,France,46.7152613,-1.4517985
Vohibinany,Madagascar,-18.8200534,49.0652963
Ängelholm,Sweden,56.2716397,12.8632487
Sypniewo,Poland,53.0155306,21.3375451
Tembeling,Indonesia,1.008763,104.470164
Guadalupe,Mexico,25.6765837,-100.2602364
Austin,United States,30.181965,-97.9701846
Pobral,Portugal,38.9254193,-9.3894213
Arapuey,Venezuela,9.25,-70.95
Mashan,China,45.212088,130.478187
Tanahwulan,Indonesia,-8.0038635,113.7216313
Gantang,China,30.9578398,107.8655766
Länsi-Turunmaa,Finland,60.303444,22.300981
Fram,Paraguay,-27.097026,-56.0166377
La Loma,Mexico,19.3608203,-99.2577715
Callanca,Peru,-13.5066591,-71.9927391
Dalan,China,38.914003,121.614682
San Miguel,Costa Rica,9.8741891,-84.0605696
Koanara,Indonesia,-8.7458539,121.8505679
Bobon,Philippines,12.5200531,124.5372661
Tianzhen,China,40.420237,114.090867
Manika,Philippines,11.4820004,122.3040009
Wielka Nieszawka,Poland,52.9961639,18.509675
Bafoussam,Cameroon,5.4807517,10.4284178
Jacarezinho,Brazil,-23.1734868,-49.9783088
Kāshmar,Iran,35.2434225,58.468709
Bhadrapur,Nepal,26.5363305,88.0803051
Lelystad,Netherlands,52.5077777,5.4757709
Xindu,China,30.823499,104.158705
Navegantes,Brazil,-26.8947924,-48.6550692
Sendafa,Ethiopia,9.1495559,39.0241756
Mtsensk,Russia,53.286578,36.5904759
Hiji,Japan,26.7255231,128.1765722
Guanchao,China,27.882587,114.870554
Palenggihan,Indonesia,-6.9621,112.9277
Kameda-honchō,Japan,41.8905758,140.6934778
Patenongan,Indonesia,-7.0009,113.8811
Bonik,Indonesia,-10.2024984,123.5988052
Bejuco,Panama,8.606157,-79.8884819
Xiabuji,China,26.885704,120.005147
Matagami,Canada,49.75018,-77.63277
Mabilog,Philippines,10.6936663,122.5655726
Lingxi,China,29.367984,111.177234
Outing,China,23.408913,116.718004
Kosów Lacki,Poland,52.596028,22.1470031
Buyant,Mongolia,48.1735752,91.7678144
Lagayan,Philippines,17.775429,120.683745
Bené Beraq,Israel,32.084932,34.835226
Shuanglu,China,30.574474,103.923651
Moganshan,China,30.6297222,119.8255556
Łaszczów,Poland,50.5332417,23.7255557
Nunutba,Indonesia,-10.2183,123.6274
Oslo,Norway,59.9123889,10.8335476
Niquero,Cuba,20.0390282,-77.5791358
Chengzhong,China,24.315499,109.410683
Ruen,Bulgaria,42.7996836,27.2454348
Xiejiaya,China,44.441584,126.4510829
Nuamuzi,Indonesia,-8.8567,121012
Niort,France,46.3194856,-0.4546217
Zhendong,China,34.137139,120.227624
Kuloy,Russia,61.030613,42.4853941
Meget,Russia,52.4242797,104.0456397
Valle Grande,Argentina,-34.5128294,-58.5125025
Funan Chengguanzhen,China,32.6350368,115.5777522
Plast,Russia,54.4915943,60.7871278
Makata,Malawi,-15.7874406,35.030814
Zheleznogorsk-Ilimskiy,Russia,56.6175886,104.1948978
Tianxin,China,28.112525,112.989854
Sindangsari,Indonesia,-7.811056,108.438797
Babakan,Indonesia,-6.588201,106.804564
Jieshipu,China,28.262375,109.698015
Tracal,Indonesia,-6.9834604,112.3367573
Seres,Philippines,8.3839026,123.2857418
El Cardo,Peru,-5.85,-79.8833329
Stepojevac,Serbia,44.5043184,20.2873726
Caluquembe,Angola,-13.7866658,14.687936
Dortmund,Germany,51.4918437,7.5319762
Tōbetsu,Japan,41.737365,140.5800948
Shadui,China,27.602752,107.709916
Tabogon,Philippines,10.9318486,124.0280263
Pisões,Portugal,39.7177351,-8.5280694
Manaloal,Philippines,14.6419036,121.0120679
Nai Harn,Thailand,7.7785093,98.3031575
Göteborg,Sweden,57.7316019,12.0703707
Zhoushizhuang,China,40.115306,113.457407
Sokółka,Poland,52.6057865,21.8949682
Sukasenang,Indonesia,-7.4111208,108.1221146
Abuyog,Philippines,10.668154,125.042795
Wujing,China,25.261992,114.593792
Ciseda,Indonesia,-6.7796462,107.9276672
Springfield,United States,42.1144473,-72.4909026
Nangxian,China,29.046337,93.074702
Watulumbung,Indonesia,-7.8028722,113.007156
Long Beach,United States,33.7684556,-118.2022212
San José de Bocay,Nicaragua,13.5438483,-85.5399774
Santo Domingo,Philippines,13.2317498,123.7702587
Haoxinying,China,40.88222,111715
San Francisco,Philippines,8.508983,125.969667
Fuhe,China,47.298877,132.09903
Cuevas,Philippines,14.5823299,120.9946341
Tokombere,Nigeria,11.2210043,13.4876688
Bologna,Italy,44.4645876,11.3727437
Rat Burana,Thailand,13.6730341,100.5014909
Mentaraman Satu,Indonesia,-8.1924285,112.7011258
Cisompet,Indonesia,-7.5625591,107.7873095
Bollnäs,Sweden,61.3501078,16.373663
Acton Vale,Canada,45.65007,-72.56582
Jiwei,China,31.848137,117.284858
Stung Treng,Cambodia,13.576473,105.9699878
Chengdong,China,36.599744,101.803717
Qikeshu,China,38.913307,115.484517
Ninove,Belgium,50.8441986,3.9438609
Kinzan,South Korea,36.10306,127.48889
Veltruby,Czech Republic,50.0705922,15.1845475
Orléans,France,47.3591366,2.8002946
Sarnia,Canada,42.9946912,-82394
Joutseno,Finland,61.1174188,28.5010914
Nowe Miasto,Poland,52.6806269,20.6620485
Le Chambon-Feugerolles,France,45.396383,4.3258963
Dębów,Poland,50.045621,22.4322889
Resende,Portugal,41.1060534,-7.9642047
São Lourenço de Mamporcão,Portugal,38.8905198,-7.5457633
Saint-Denis,Reunion,-20.891394,55.5178001
Göteborg,Sweden,57.7328579,12.0745352
Mamali,Philippines,6.878872,126.169972
Sanzhang,China,34.61672,109.248057
San Juan,Philippines,14.565668,121.0317737
Tyvriv,Ukraine,49.0130083,28.5042197
Guyangan,Indonesia,-7.5849174,111.8784707
Margos,Philippines,7.929855,123.6604152
Novomichurinsk,Russia,54.0254025,39.811744
Qingyang,China,35.709077,107.643631
Zhongcun,China,26.207631,113.767529
Borås,Sweden,57.7119589,12.9890358
Dagup,Philippines,16.597659,120.493376
Diang,Cameroon,4.5778968,13.3500652
Kobelyaky,Ukraine,49.1517927,34.1953871
Skore,Albania,40.1072856,20.3651385
Catamayo,Ecuador,-3.9879753,-79.3535714
Laibin,China,23.750306,109.221465
Kaolinovo,Bulgaria,43.6165639,27.091526
Kedungtuban,Indonesia,-7.1481355,111.4991334
Dehī,Afghanistan,34.496651,69.079674
Tapon,Philippines,10.0620494,123.444424
Sarandi,Brazil,-27.946449,-52.9164069
Pucara,Peru,-15.0418557,-70.3673152
Nangalimang,Indonesia,-8.6436471,122.2001457
Laguna de Perlas,Nicaragua,12.3390296,-83.6747342
Strasbourg,France,48.5851876,7.7342943
Port-Cartier,Canada,50.0234664,-66.8869412
Escuintla,Guatemala,14.2724013,-90.7746443
Pāshmūl,Afghanistan,31.5572,65.4343
Macia,Mozambique,-25.0263578,33.1070309
Camilo Aldao,Argentina,-32.9817511,-60.6944851
Kunvald,Czech Republic,50.1206081,16.4894818
Vrbas,Serbia,45.5701534,19.6449683
Badajoz,Spain,38.8794495,-6.9706535
Jāmpur,Pakistan,29.5945152,70.6008375
Lens,France,46.280212,-0.4601725
Třinec,Czech Republic,49.6579309,18.7059561
Tuguan,China,23.146358,113.265008
Mekarsari,Indonesia,-8.3765619,115.1918802
Usab,Philippines,14.739952,121.0267879
Quchomo,China,28.249827,91.767413
Xiangcheng,China,33.465838,114.875333
Laweueng,Indonesia,5.5080084,95.8630825
Jabon,Indonesia,-7.5590563,112.7509656
Kiuruvesi,Finland,63.6106858,26.9828477
Kuala Lumpur,Malaysia,3.1523104,101.7178316
Kasina Wielka,Poland,49.7287057,20.1353402
Gazimurskiy Zavod,Russia,51.55352,118.3446
Puwa,China,30.849368,85.240127
Cibebek,Indonesia,-6.148922,106.191761
Ferreira do Zêzere,Portugal,39.6932144,-8.2905257
Trnovlje pri Celju,Slovenia,46.2394709,15.2867417
Aranos,Namibia,-24.1377718,19.1107114
Monte,Portugal,41.1256135,-7.925857
Dongbatu,China,31.232225,121.289253
Thị Trấn Ngọc Lặc,Vietnam,20.0844095,105.3760604
Davila,Philippines,14.5675752,121.0144105
Vitoria-Gasteiz,Spain,42.8436672,-2.6722992
Omaha,United States,41.2101217,-95.9991228
Zheleznogorsk,Russia,56.1721987,93.6466243
Lipovljani,Croatia,45.3982443,16.8946158
La Caya,Dominican Republic,18.4849486,-69.8627901
Shigu,China,27.522725,112.507849
Magdalena,Peru,-12.0904353,-77.069999
Saraktash,Russia,51.7920503,56.3442985
Pokhvistnevo,Russia,53.6482058,52.1229541
Dali,China,25.606486,100.267638
Sidareja,Indonesia,-7.4846821,108.7833982
El Parco District,Peru,-5.6202503,-78.4695111
Oslo,Norway,59.9684367,10.6587684
Limoges,France,45.521519,3.5276642
Hînceşti,Moldova,46.8282022,28.589271
Yuci,China,37.697794,112.708224
Al Jafr,Saudi Arabia,25.377098,49.72433
Tieremu,China,39.119934,77.002783
Sapadun,Philippines,7.48333,124.25
Fenghuangdong,China,28.338821,113.676055
Hetian,China,37.114157,79.922211
Caibarién,Cuba,22.5064672,-79.4760133
Sedlice,Czech Republic,50.153206,15.7292147
Prakhon Chai,Thailand,14.6014909,103.0933171
Krajan,Indonesia,-7.5450262,111.6556388
Peabiru,Brazil,-23.9145273,-52.3400517
Liangshan,China,27.88157,102.267712
Dordrecht,Netherlands,51.7783026,4.693265
Shīeli,Kazakhstan,44.1689119,66.7337284
Borūjen,Iran,31.9797908,51.2946066
Xishaping,China,29.648686,109.864472
København,Denmark,55.6658602,12.5482906
Dongfanghong,China,41.1846097,80.3038321
Wŏnsan,North Korea,39.1538529,127.4460001
Thị Trấn Mộc Châu,Vietnam,20.8444995,104.6412925
Woodford Hill,Dominica,15.5805384,-61.3297698
Kvasy,Ukraine,48.1495982,24.2824443
Campo,Portugal,41.5706511,-8.3577961
Anopog,Philippines,10.3291793,123.8864493
Colombo,Sri Lanka,6.9333793,79.8441645
Tres Arroyos,Argentina,-34.6250746,-58.4879365
Buenos Aires,Mexico,19.4052965,-99.1504583
Siborong-borong,Indonesia,2.2155425,99.0349977
Vera,Argentina,-31.6577222,-60.7829517
Jesús Menéndez,Cuba,21.1596123,-76.4736602
Tilburg,Netherlands,51.5742615,5.0840393
Greenhills,Ireland,53.3122864,-6.336393
Nancy,France,48.689836,6.17445
Dobroměřice,Czech Republic,50.3700968,13.794744
Vakhtan,Russia,57.9609962,46.6878846
Coyaima,Colombia,3.799339,-75.194595
Mungui,Peru,-15.1838408,-72.9061903
Lenningen,Luxembourg,49.6005751,6.3670151
Jarry,Guadeloupe,16.2359,-61558
Shamkhor,Azerbaijan,40.8288144,46.0166879
Mahaddayweyne,Somalia,2.9716241,45.5334515
Ivouani,Comoros,-11.388934,43.390991
Tiarei,French Polynesia,-17.53333,-149.33333
Weishan,China,25.227212,100.307174
Midoun,Tunisia,33.7754716,10.9580947
Lümeng,China,34.994502,118.3126338
Izmaylovo,Russia,55.8056555,37.8046391
Estrada,Portugal,41.0832289,-7.8225565
Listvyanka,Russia,51.8761178,104.8423232
Xindong,China,21.918725,111.053561
Orikhiv,Ukraine,47.5658802,35.7876745
Fengcun,China,23.0886013,113.2446381
Chengnan,China,29.270311,88.880492
Gävle,Sweden,60.6815788,17.1350993
Yinhedahan’er,China,48.0288905,123.0199373
Tibigan,Philippines,9.9518,123.9622
Roches Noire,Mauritius,-20.1100712,57.7261042
Vesëlyy,Russia,47.0914911,40.7454595
Fyllingsdalen,Norway,60.3573369,5.2731644
Shashi,China,30.311056,112.255583
Cerquilho,Brazil,-23.1744477,-47.7440315
Budapest,Hungary,47.517115,19.053701
Babice,Poland,49.8180882,22.4761571
Stroitel’,Russia,52.6523079,41.4346698
Woto,Indonesia,-7.524303,109.204103
Caotang,China,23.2997268,113.323144
Bungo-Takada-shi,Japan,33.5617615,131.428737
Oke Mesi,Nigeria,7.8353579,4.9221114
Kopang Satu,Indonesia,-8.5803424,116.3654707
Pivijay,Colombia,10.4471471,-74.4086073
Santos Evos,Portugal,40.6588133,-7.8303977
Huaiyuan Chengguanzhen,China,32.968455,117.167673
Épernay,France,49.0371335,3.979371
Nagoselo do Douro,Portugal,41.1814553,-7.4179536
Czyżowice,Poland,49.9846987,18.4044199
Trzciana,Poland,50.05998,21.8324138
Tshela,Democratic Republic of the Congo,-5.0077715,12.9608246
Hwawŏn,South Korea,35.8037979,128.5005419
Huntsville,United States,34.6540922,-86.566246
Szeged,Hungary,46.2646441,20.1120379
Zhouxi,China,22.993423,113.718807
Tintafor,Sierra Leone,8.6286447,-13.2158557
Pilcaniyeu,Argentina,-38.7418721,-62.2206382
Neyrīz,Iran,29.1893104,54.3139277
Versailles,France,48.8048649,2.1203554
Laholm,Sweden,56.504578,13.0422348
Lexington,United States,32.7925057,-116.93933
Sidu,China,30.619516,110.400306
Hudiksvall,Sweden,61.8245883,16.1406946
Okhtyrka,Ukraine,50.3150962,34.9005644
Shuiquan,China,35.640089,103.766427
Miandrivazo,Madagascar,-19.5354306,45.4615785
Jiabeiyan,China,40.338328,119.73214
Los Angeles,United States,34.0599302,-118.249786
Bassa,Nigeria,7.7701761,7.0498442
Fazhan,China,23.021478,113.121435
Capalonga,Philippines,14.273035,122.564262
Mangga Dua,Indonesia,-6.1418556,106.8281623
Rust’avi,Georgia,41.5225612,45.0430369
Leiria,Portugal,39.7191273,-8.852352
Kedungsinggil,Indonesia,-8.0993,111.9161
Kiaranonggeng,Indonesia,-7.42566,108.14323
Chenghe,China,30.572815,104.066801
Old Harbour Bay,Jamaica,17.9073835,-77.0965442
Siilinjärvi,Finland,63.071925,27.6617536
Göteborg,Sweden,57.6983773,11.982711
Puqi,China,29.724692,113.900628
Créteil,France,48.7997482,2.4699259
Kup,Poland,50.8062039,17.8834957
Bomomani,Indonesia,-3.9020493,135.7900209
Şūrān,Syria,35.2866986,36.7415432
Skore,Albania,40.1072856,20.3651385
Shajing,China,22.720595,113.829667
Lewolere,Indonesia,-8.339355,122.9634852
Wróblew,Poland,51.612047,18.615044
Orahovac,Kosovo,42.3998287,20.6527992
Kasiyan,Indonesia,-8.3162866,113.4686802
Daijiaba,China,33.010035,106.179842
Ōarai,Japan,37.6710023,139.8647618
Kristiansand S,Norway,58.1348867,8.006095
Yangsan,South Korea,35.3350072,129.0371689
Uherce Mineralne,Poland,49.4702817,22.4000005
Konduga,Nigeria,11.6485321,13.4193903
Sukamahi Satu,Indonesia,-6.3811392,107.1854181
Xicheng,China,39.912288,116.365867
Cinyumput,Indonesia,-7.311248,106.4786051
Tobilolong,Indonesia,-8521,123.5353
Narsaq,Greenland,60.910493,-46.04349
Povorino,Russia,51.1907529,42.2463427
Pluak Daeng,Thailand,12.9707642,101.2163774
Fengyang Fuchengzhen,China,32.871671,117.56024
Werang,Indonesia,-8.5639937,122.6164409
Primero de Mayo,Mexico,19.1753648,-96.1427574
Hajeom,South Korea,37.7745941,126.4111806
Oslo,Norway,59.8879013,10.802721
Mae Ramat,Thailand,17.0597577,98.6160674
Papelón,Venezuela,8.9420217,-69.4620671
Jiekou,China,23.544678,113.591349
Mananara,Madagascar,-16.1705547,49.765208
Bagong Barrio,Philippines,14.6587588,120.944359
Balabagan,Philippines,7.5421232,124.1539783
Cibebek,Indonesia,-6.148922,106.191761
Jiajiaying,China,22.7843398,114.0486176
Nara-shi,Japan,34.6518908,135.7845381
Azueira,Portugal,39.0107208,-9.285291
Banjar Cemenggon,Indonesia,-8.5403989,115.2027279
Jeponkrajan,Indonesia,-7.459928,110.2727569
Kujama,Nigeria,10.4801506,7.6358249
Pyhäsalmi,Finland,63.4416393,25.6450741
Ampera,Indonesia,-8.2600716,124.423984
Alto Barinas,Venezuela,8.59207,-70.225082
Chyňava,Czech Republic,50.0385516,14.0470364
Simabur,Indonesia,-0.4589199,100.5099262
Bugis,Indonesia,-0.4978509,117.1448579
Drummondville,Canada,45.9067495,-72.5406445
Az̧ Z̧a‘āyin,Qatar,25.5784559,51.4821387
Firenze,Italy,43.7549435,11.2216134
Ust’-Kachka,Russia,58.00284,55.6720592
Bourg-en-Bresse,France,46.2501181,5.1140864
Mari,Indonesia,-7.7469239,110.3729973
Biscucuy,Venezuela,9.3595215,-69.9877879
Huancheng,China,30.940195,118.75868
Rodotópi,Greece,39.7083252,20.7237136
Mobara,Japan,37.5330237,140.628425
La Tigra,Argentina,-37.7912944,-58.8489331
Orvalho,Portugal,40.0233496,-7.7912472
Sremčica,Serbia,44.6757957,20.4004819
Capalonga,Philippines,14.273035,122.564262
Longbo,China,24.9848125,118.8310811
Huaping,China,26.629211,101.266195
Dongpu,China,23.113478,113.417068
Florida,Uruguay,-34.0948167,-56.2202946
Narew,Poland,52.9152117,23.4961724
Saint-Tite,Canada,46.73336,-72.56581
Tiantang,China,25.556716,110.016031
Al Farwānīyah,Kuwait,29.273357,47.9400154
Sekondi-Takoradi,Ghana,4.9536104,-1.7344155
Tiguion,Philippines,13.3475852,121.8847222
La Falda,Argentina,-38.6816248,-62.2841378
Sovetsk,Russia,57.5780197,48.9602971
Xinmatou,China,39.437477,115.496651
Krasnaye,Belarus,52.8874021,30.0360311
Poctol,Philippines,13.8151887,121.436308
Mariatana,Peru,-12.2376497,-76.3259182
Borok,Russia,58.1494235,38.2144331
Martin,Croatia,45.4942402,18.0674023
Alepoú,Greece,39.6185297,19.8966576
Katy,United States,29.7857853,-95.8243956
Bolembre,Portugal,38.8678657,-9.4272778
Rosario de Lerma,Argentina,-24.9843096,-65.5805252
Vanino,Russia,49.0844448,140.2534384
Satsumasendai,Japan,31.8484611,130.260344
Hobo,Philippines,13.5085076,123.1804731
Nagareyama,Japan,35.8496818,139.8969749
Cedry Wielkie,Poland,54.2490828,18.8664712
Vilufushi,Maldives,2.5045603,73.3082308
Herval,Brazil,-32.0288506,-53.3936083
Nuoxizhi,China,30.2785,109.62866
Urho,China,46.089148,85.693742
Manado,Indonesia,1.4748305,124.8420794
Lanchkhuti,Georgia,42.0902225,42.0359711
Kazanlŭk,Bulgaria,42.61667,25.4
Jucás,Brazil,-6.4534018,-39.6105142
San Fernando de Monte Cristi,Dominican Republic,19.8488549,-71.6514216
Marcala,Honduras,14.1560521,-88.0363086
Ramon’,Russia,51.9347573,39.3221711
Zinder,Niger,13.8018124,8.98527
Xiongjia,China,25.648962,111.675265
Yao’an,China,25.504173,101.241728
Lawesigalagala Timur,Indonesia,3.352913,97.913223
Załuski,Poland,52.4977237,20.5022109
Buliu,China,37.339426,122.435887
Sukonolo Krajan,Indonesia,-8.1031,112.6167
Bīleh Savār,Iran,39.3822864,48.3501725
Jiaodai,China,34.0600347,109.2478812
Wiang Nuea,Thailand,19.9252706,99.8625116
Weifang,China,36.706962,119.161748
Krasne,Poland,50.0384685,22.0969371
Millau,France,44.1012172,3.0792713
Chiquinquirá,Colombia,5.614775,-73.819571
Bull Savanna,Jamaica,17.8846183,-77.5950623
Cai Doi Vam,Vietnam,8.8732234,104.8162784
Dniprodzerzhyns’k,Ukraine,48.523117,34.613683
Huskvarna,Sweden,57.7911244,14.2483538
Morada Nova,Brazil,-5.0662102,-38.3587174
Nový Knín,Czech Republic,49.7880079,14.293561
Baharly,Turkmenistan,38.4361809,57.4287899
Butuan,Philippines,14.3213796,121.0737995
Malonty,Czech Republic,48.6768262,14.5775257
Palaió Fáliro,Greece,37.9253691,23.7006539
Zhangjiafan,China,31.046822,115.318821
Kambar,Pakistan,27.8084474,67.9277909
Lianxia,China,23.493474,116.77979
Changxing,China,31.026665,119.910952
Velký Týnec,Czech Republic,49.5519718,17.3375604
Rodez,France,44.5453926,2.14552
Kamphaeng Phet,Thailand,16.4739491,99.5096031
Chenfangji,China,28.053959,116.55989
Şafwá,Saudi Arabia,26.6274775,49.9161886
Haveluloto,Tonga,-21.15216,-175.21333
Ayagoz,Kazakhstan,47.9755808,80.432736
Chitré,Panama,7.9523119,-80.4382153
Novosmolinskiy,Russia,56.2862076,43.0264348
Krapyak Kidul,Indonesia,-6.8762522,109.6795545
Quinua,Peru,-13.05526,-74.139107
Vichy,France,46.1167,3.4167
Longzhong,China,31.991961,112.03379
Saint-Denis,France,48.922709,2.3425328
Baghlān,Afghanistan,35.8042947,69.2877535
Metsovo,Greece,39.7702467,21.1828612
Norrköping,Sweden,58.5812006,16.1481061
Pulau Pinang,Malaysia,5.414515,100.329744
Srebrenica,Bosnia and Herzegovina,44.1039762,19.2997218
Lishan,China,27.622444,112.410417
Albuquerque,United States,35.1332903,-106.6167113
Santa Cruz do Rio Pardo,Brazil,-22.8997858,-49.6258261
Požarevac,Serbia,44.6208353,21.1842054
Horta,Portugal,40.6205598,-8.5468762
Zhiryatino,Russia,53.2252531,33.7298819
Guanzhuang,China,27.868393,113.433712
Nunbaundelha,Indonesia,-10.1748845,123.5714032
Kosmonosy,Czech Republic,50.4427733,14.9233449
Kotes,Indonesia,-8.0600591,112.2890705
Hehu,China,31.199997,121.461114
Ormož,Slovenia,46.4086282,16.1508154
Harrison,Philippines,29.8867778,-95.549054
Atescatempa,Guatemala,14.1752039,-89.7445776
Tcholliré,Cameroon,8.3976116,14.1727518
Sexmoan,Philippines,14.9333333,120.6166667
Tulsa,United States,36.1592882,-95.9964783
Daying,China,30.594336,105.236903
Barranquilla,Colombia,10.9961711,-74.8331674
Johanneshov,Sweden,59.294651,18.0695647
Treinta y Tres,Uruguay,-33.229046,-54.3576473
Valbo,Sweden,60.6466216,17.0064517
Beoga,Indonesia,-3.8171911,137.3315076
Bagalangit,Philippines,8.2101114,124.8662656
Orsay,France,48.3606958,-0.2717072
Douba,China,35.0633042,116.3184614
Tucheng,China,24.1477358,120.6736482
Vancouver,United States,45.616422,-122.5804528
Phan Thong,Thailand,13.4712468,101.0978724
Selaawi,Indonesia,-7.011204,108.0257828
Glan,Philippines,5.8228231,125.2060456
Skillingaryd,Sweden,57.4357357,13.9788932
Dijon,France,45.2977605,2.5135985
Tuba,China,36.1228302,-111.2236913
Cinyawang,Indonesia,-7.5746526,108.7690065
Fuji,Japan,37.5568153,139.747389
Kassiri,Sierra Leone,8.9392884,-13.1149327
Horad Smalyavichy,Belarus,54.0297214,28.0892299
Aasiaat,Greenland,68.708827,-52.870974
Hantara,Indonesia,-7.0695176,108.463214
Tam Kỳ,Vietnam,15.5638825,108.4786313
Podporozh’ye,Russia,60.9116468,34.1661641
Sandaogou,China,41.468342,115.437602
Bethlehem,United States,40.6238902,-75.3936808
Hanggan,Philippines,14.5165603,121.2786716
Villa del Rosario,Colombia,7.6834821,-72.4909026
Cishan,China,36.57863,114.114634
Gjøvik,Norway,60.79832,10.705945
Daitou,China,34.6911,106.221144
Currais Novos,Brazil,-6.238218,-36.4797126
Chynadiyovo,Ukraine,48.4907371,22.8097434
Quangang,China,25.119815,118.916309
Oklahoma City,United States,35.46,-97.52
Ruda Maleniecka,Poland,51.1448845,20.1864915
Santa Maria da Vitória,Brazil,-13.4017106,-44.2097085
Berekum,Ghana,7.4576765,-2.5842062
Wangjiachang,China,39.142026,117.212606
Belfort,France,47.484145,6.923811
Cusco,Peru,-13.53195,-71.9674626
Bang Ban,Thailand,14.4050979,100.464947
Yên Lập,Vietnam,21.3410625,105.0089888
Talu,Indonesia,0.2118181,100.0024084
Bhokadoke,Indonesia,-8802,121.3118
Citatah Kaler,Indonesia,-6.859269,107.4702845
El Refugio,Mexico,32.463219,-116.827715
Widuchowa,Poland,53.1395216,14.4504726
Likwatang Timur,Indonesia,-8.1649,124668
Santa Helena de Goiás,Brazil,-17.8119748,-50.5981252
Puerto Padre,Cuba,21.1878548,-76.606611
Rosa Zarate,Ecuador,0.3268809,-79.4647633
Emiliano Zapata,Mexico,19.3624962,-96.6565439
Zoumi,Morocco,34.8032705,-5.3442408
Sundbyberg,Sweden,59.3606836,17.9701456
Jalalaqsi,Somalia,3.3850829,45.5959878
Zhulin,China,27.862955,106.554468
Vavozh,Russia,56.7780157,51.9234687
Cisalak,Indonesia,-6.3874037,106.8620891
Teminabuan,Indonesia,-1.4328008,132.0583886
Dawan,China,39.728885,116.341609
Cijapar,Indonesia,-6.9034154,106.4206269
Thị Trấn Bắc Hà,Vietnam,22.5383534,104.2890194
Dazhan,China,24.160878,113.433561
Sel’tso,Russia,53.3656498,34.1098425
Nambalan,Philippines,15.5946381,120.465637
Düsseldorf,Germany,51.1974375,6.7898817
